station_id,name,lat,lon
000001,Herschel Street Stop 1 near North Quay,-27.467834,153.019079
000010,Ann Street Stop 10 at King George Square,-27.468003,153.023970
000100,Parliament Stop 94A Margaret St,-27.473751,153.026745
001000,Handford Rd at Songbird Way,-27.339069,153.043907
010000,Balcara Ave near Allira Cr,-27.344106,153.024982
010001,"Nudgee Rd at Golf Course, stop 35/32",-27.372056,153.099150
010002,"Nudgee Rd at Golf Course, stop 32/35",-27.372637,153.098032
010003,"Approach Rd near Mellifont St, stop 31",-27.382612,153.090391
010005,Handford Rd at Songbird Way,-27.339592,153.042985
010006,Redwood St at Farrant Street,-27.402593,153.007388
010007,"Ridge St at St Vincents, stop 19",-27.385924,153.062459
010008,"Ridge St at Scott Street, stop 18",-27.387328,153.063647
010009,"Ridge St at Scott Street, stop 18",-27.386816,153.063368
001001,"Queen Street station, 1e",-27.470552,153.024575
010010,"Saint Vincents Rd near Ridge St, stop 19",-27.385663,153.061812
010011,Goggs Rd near Seventeen Mile Rocks Rd,-27.535123,152.949066
010013,"Sandgate Rd at Nundah, stop 3",-27.398972,153.059158
010014,"Bellwood St near Glen Ross Rd, stop 54a",-27.554391,152.946008
010015,"Bellwood St near Glen Ross Rd, stop 54a",-27.554215,152.945805
010016,Ridley Rd at Ridley Road South,-27.352058,153.004353
010017,Ridley Rd at Ridley Road South,-27.351409,153.004346
010018,Dorville Rd at Dorville North,-27.345541,153.022563
001002,"Queen Street station, 1f",-27.470675,153.024755
010020,Balcara Ave near Allira Cr,-27.344441,153.024334
010021,Balcara Ave at Beams - Balcara,-27.347847,153.027001
010022,Sinnamon Rd at Windermere,-27.532714,152.949326
010023,Kenmore Rd at Norman Street,-27.524412,152.949985
010025,Queen Elizabeth Dr at Hero,-27.335511,152.952920
010027,"Heidelberg St near Mowbray Tce, stop 14",-27.481829,153.046230
010028,Taylors Rd near Mitcham St,-27.417726,152.979364
010029,Handford Rd at Handford - Roghan,-27.341952,153.041359
001003,"Queen Street station, 1g",-27.470652,153.024996
010031,"Hamilton Rd at Trouts Rd, stop 46",-27.381274,153.001122
010037,"Avondale Rd at Avondale - Glen Ross, stop 61",-27.547352,152.943421
010038,"Avondale Rd at Avondale - Northbrook, stop 60",-27.545250,152.944985
001004,"Queen Street station, 1h",-27.470526,153.025195
010042,"Tarragindi Rd at Sharon Street, stop 41",-27.542069,153.032086
010043,Queen Elizabeth Dr at Corso Street,-27.337510,152.950051
010044,"Tarragindi Rd at Sharon Street, stop 41",-27.542030,153.032237
010045,"Glen Ross Rd at St Amand Street, stop 53",-27.551250,152.942862
010046,"Glen Ross Rd at Wanata Street, stop 54",-27.549000,152.943339
010047,"Blunder Rd near Rosella St, stop 60A",-27.598757,152.987852
010048,Blunder Rd at Flamingo Street Stop 60b,-27.601299,152.988476
010049,"Wallaroo Way near Brushtail Cr, stop 61",-27.606422,152.985126
001005,Queen Elizabeth Dr at Hero Street,-27.335962,152.952169
010050,"Blunder Rd at Doolandella North, stop 61a",-27.605895,152.987748
010052,"Azalea St at Barberry St, stop 65",-27.590417,152.968959
010053,"Rosemary St at Rosemary - Fir, stop 73",-27.581266,152.974839
010054,"Rosemary St at Holly St, stop 74",-27.584504,152.975612
010055,"Rosemary St at Inala School, stop 75",-27.585864,152.975937
010056,"Days Rd at Yarradale Street, stop 2A",-27.424844,153.007958
010057,"Days Rd at Wilston Road, stop 1A",-27.425459,153.011306
010058,"Gympie Rd at Aspley South, stop 41",-27.369999,153.018788
010059,"Gympie Rd near Albany Creek Rd, stop 42",-27.366169,153.017008
001006,"Queen Street station, 1i",-27.470372,153.025416
010060,Gympie Rd near Gayford St,-27.362386,153.016959
010061,"Gympie Rd at Gayford Street, stop 44",-27.359794,153.016650
010062,"Gympie Rd at Brickfield Street, stop 45",-27.357899,153.016768
010063,Queen Elizabeth Dr at Corso Street,-27.337395,152.949970
010064,"Gympie Rd at Brickfield Street, stop 45/44",-27.358884,153.017047
010065,"Tarragindi Rd at Davey Street, stop 40",-27.541173,153.031658
010067,Gympie Rd at Aspley,-27.361871,153.017315
010070,Englefield Rd at Idriess Street,-27.557877,152.974401
010071,Queen Elizabeth Dr at Eatons Hill,-27.334101,152.955919
010072,Englefield Rd at Idriess Street,-27.557644,152.974913
010073,Englefield Rd at Lucock Street,-27.558152,152.972385
010074,Englefield Rd at Englefield West,-27.558746,152.970057
010075,"Dowse St near Charlotte St, stop 5",-27.461167,153.009160
010076,"Dowse St near Charlotte St, stop 5",-27.461278,153.009262
010077,"Enoggera Rd at Newmarket, stop 20",-27.437667,153.007261
010078,"Roma St at Upper Roma Street, stop 3",-27.466129,153.015439
010079,"Mollison St near Melbourne St, stop 5",-27.477055,153.011924
001008,"Queen Street station, 3b",-27.470357,153.025136
010082,"Enoggera interchange, platform B1",-27.420314,152.991869
010083,"Enoggera interchange, platform C",-27.420451,152.992231
010089,"Ernest St at Brisbane State High, stop 3",-27.480558,153.019475
001009,"Queen Street station, 3a",-27.470371,153.024839
010090,Albany Creek Rd at Bangalow Street,-27.359727,153.002627
010093,Englefield Rd at Englefield West,-27.558645,152.969912
010096,"Tingal Rd at Wynnum North State School, stop 10/5",-27.434340,153.166395
010097,Manly Rd at Preston Rd,-27.459064,153.176892
010098,"Tingal Rd at Wynnum North State School, stop 10/5",-27.434820,153.166316
010099,Manly Rd near Fisher St Stop 70,-27.458586,153.177174
001010,"Queen Street station, 2a",-27.470161,153.024770
010100,"Hamilton Rd at Unmack Street, stop 50",-27.387543,153.041435
010101,Old Northern Rd at Everton Junction,-27.399706,152.986175
010104,"Hamilton Rd at Corrie Street, stop 51",-27.387041,153.038887
010106,"Nudgee Rd near Allen St, stop 29",-27.436780,153.070797
010107,"Osborne Rd at Osborne North, stop 51",-27.402675,152.979186
010108,"Whites Rd at Curtis Street, stop 71",-27.460225,153.177578
010109,"Whites Rd at Curtis Street, stop 71",-27.460666,153.177886
010110,"Whites Rd at Gannon Avenue, stop 72",-27.461492,153.179042
010111,"Whites Rd at Manly Gardens, stop 73",-27.463601,153.180486
010112,"Whites Rd at Manly Gardens, stop 73",-27.463498,153.180593
010113,"Whites Rd at Gannon Avenue, stop 72",-27.461867,153.179271
010114,Whites Rd at Muriel Ave,-27.464672,153.181086
010115,Whites Rd at Muriel Ave,-27.464888,153.181061
010116,"Whites Rd at Hindes Street, stop 75",-27.466314,153.181848
010117,"Whites Rd at Hindes Street, stop 75",-27.466511,153.181784
010119,Albany Creek Rd at Bangalow Street,-27.359460,153.002571
010120,Andrew St near Ronald St Stop 100,-27.445804,153.170164
010121,"Oceana Tce at Lota House, stop 81",-27.463224,153.188246
010122,"Creek Rd at Fursden Road, stop 47",-27.485727,153.098928
010123,"Creek Rd at Carindale Tennis Centre, stop 46",-27.487765,153.100114
010125,"Stanley Rd at Pembroke Street, stop 42",-27.488892,153.092815
010126,"Stanley Rd at Pembroke Street, stop 42",-27.488806,153.093113
010127,Douglas St at Douglas St Central,-27.562761,152.970352
010128,Douglas St at Douglas St Central,-27.563508,152.970407
010129,Douglas St at Douglas St South,-27.565391,152.971001
001013,"Queen Street station, 2c",-27.469899,153.025115
010130,Strathmore St near Caithness St,-27.403857,153.030209
010131,Douglas St at Douglas St South,-27.565368,152.970850
010132,"Crichton St near Park Rd, stop 27",-27.523766,153.018463
010133,"Moggill Rd at Stamford Road, stop 22/23",-27.497417,152.974393
010135,"Tarragindi Rd at Davey Street, stop 40",-27.541276,153.031491
010136,"Stanley Rd at Arrol Street, stop 38",-27.487280,153.082346
010137,Albany Creek Rd at Leitchs Road,-27.346127,152.976062
010138,South Pine Rd at Hylacola,-27.345073,152.962301
010139,"Buzacott St near Buckley St, stop 48a",-27.507704,153.098240
001014,Goggs Rd at Windermere Village Shopping,-27.535238,152.949178
010140,Old Cleveland Rd at Belmont Primary School,-27.502254,153.114637
010141,"Heidelberg St at Heath Street, stop 15",-27.480224,153.046532
010143,"Byron St near Apollo Rd, stop 41",-27.443898,153.063369
010144,"Apollo Rd at Shakespeare Street, stop 39",-27.446394,153.063316
010145,"Heidelberg St at Heath Street, stop 15",-27.480203,153.046649
010146,"Heidelberg St near Mowbray Tce, stop 14",-27.481976,153.046325
010148,Albany Creek Rd at Hawkins,-27.348010,152.978164
010149,Albany Creek Rd at Hawkins,-27.346884,152.977335
001015,"Queen Street station, 2d",-27.469813,153.025228
010150,"Hampden St at Hopetoun Street, stop 30",-27.428782,153.074426
010151,"Gerler Rd at Dorames Street, stop 37/36",-27.419184,153.072921
010152,"Waterworks Rd at Girraween Grove, stop 21/22",-27.448078,152.981618
010153,"Waterworks Rd at Ashgrove, stop 17",-27.445489,152.993111
010154,"Kaloma Rd at Kaloma - Harward, stop 38",-27.436464,152.942708
010155,"Kaloma Rd at Woorama Rd, stop 39",-27.435988,152.940412
010156,"Hilder Rd at Kaloma - Hilder, stop 41",-27.436321,152.935247
010160,"Waterworks Rd at Girraween Grove, stop 21",-27.447500,152.982734
010161,"Koorong St at Devonhill St, stop 37",-27.453547,152.950020
010162,"Musgrave Rd at Red Hill Shops, stop 8",-27.455011,153.007047
010163,"Lutwyche Rd at Old Council Chambers, stop 16",-27.429326,153.032396
010164,"Lutwyche Rd at Maygar Street, stop 17",-27.427683,153.032368
010165,"Carberry St near Thomas St, stop 25C",-27.427037,153.014822
010166,"Days Rd at Yarradale Street, stop 2A",-27.424990,153.008154
010167,Queen Elizabeth Dr at Eatonvale,-27.343729,152.950269
010168,"Grange Rd at Raymont Road, stop 27",-27.420919,153.015186
010174,"Lutwyche Rd at Lutwyche, stop 20",-27.421776,153.033784
010175,Albany Creek Rd at Pinnaroo,-27.353055,152.991885
010177,"Carwoola St at Bardon, stop 22",-27.464557,152.968109
010178,Albany Creek Rd at Pinnaroo,-27.352974,152.991045
010179,"Latrobe Tce at Old Ithaca Fire Station, stop 9",-27.458818,152.999818
010180,"Latrobe Tce at Paddington Central, stop 10",-27.459242,152.998070
010181,"MacGregor Tce at Bardon, stop 15",-27.458126,152.986375
010182,Old Cleveland Rd at Burke Street Stop 25,-27.492161,153.063752
010183,"Zahel St at Williams Field, stop 40",-27.492969,153.100686
010185,"Old Cleveland Rd at Coorparoo, stop 23",-27.494888,153.058817
010186,Queen Elizabeth Dr at Saraband Dr,-27.341392,152.948815
010187,"Jones Rd at Hill Crescent, stop 35/36",-27.496928,153.088418
010188,"Jones Rd at Hill Crescent, stop 35/36",-27.496744,153.088576
010189,"Old Cleveland Rd at Stones Corner Library, stop 17",-27.498482,153.043671
001019,"Burilda St at Derby Street, stop 45",-27.419561,153.068326
010190,Old Cleveland Rd at Coorparoo Stop 23,-27.494703,153.058566
010192,"Chapel Hill Rd near Neptune St, stop 1",-27.506499,152.952289
010193,Bedivere St at Lindisfarne Street,-27.493604,153.108084
010194,Bedivere St at Lindisfarne Street,-27.493423,153.107995
010195,"Gallipoli Rd at Buzacott Street, stop 48a",-27.507674,153.097374
010196,"Edmondstone Rd at Parkview, stop 14",-27.442960,153.041118
010197,"Edmondstone Rd at Parkview, stop 14",-27.443455,153.041287
010198,Albany Creek Rd at Aspley Bowl,-27.362708,153.008572
010199,Albany Creek Rd at Aspley Bowl,-27.362408,153.008554
001020,"Upper Roma St near Quay St, stop 3",-27.466210,153.013906
010200,"Pinelands Rd at Barney Street, stop 70/71",-27.593948,153.059661
010201,"Pinelands Rd at Barney Street, stop 70/71",-27.594033,153.059318
010204,"Compton Rd at Sunnybank Hills Shops, stop 83",-27.611476,153.057082
010209,"Compton Rd at Frizzell Street, stop 85",-27.611499,153.062691
001021,"Wickham St at Light Street, stop 7",-27.452271,153.038857
010210,"Compton Rd at Kyabra Street, stop 86",-27.611233,153.068824
010211,"Compton Rd near Kyabra Street, stop 86",-27.611610,153.069371
010212,"Eisenhower St at Park, stop 87",-27.612344,153.071125
010213,Ian Lynas Memorial Park,-27.612354,153.070748
010214,"Eisenhower St near Hoover Ct, stop 88",-27.614124,153.071373
010215,"Roosevelt Dr near Penson St, stop 88",-27.614436,153.070360
010216,"Harrison St at Washington Place, stop 90",-27.618659,153.071322
010217,"Harrison St at Truman Court, stop 89",-27.616026,153.071822
001022,Grey Street at South Brisbane station,-27.474847,153.018788
010221,"Gowan Rd at Calam North, stop 35",-27.615961,153.061242
010223,"Appleby Rd at Quandeine Street, stop 34",-27.405852,153.008664
010225,Gowan Rd at Pennant Hills,-27.621529,153.060232
010226,"Stanley Rd at Sage Street, stop 41",-27.488648,153.091103
010227,"Stanley Rd at Lunga Street, stop 40",-27.488282,153.088507
010228,Stanley St E at Coorparoo Secondary College,-27.487205,153.054765
010229,"Stringybark Dr at Martindale Street, stop 47",-27.373884,153.005958
010230,"Perth St at St Thomas Primary, stop 31",-27.486446,153.073022
010231,"Oateson Skyline Dr at Darcy Road, stop 40",-27.478969,153.071086
010233,"Creek Rd at Carindale Tennis Centre, stop 46",-27.487520,153.099605
010234,"Creek Rd at Fursden Road, stop 47",-27.485915,153.098672
010235,"Creek Rd near Foxmont Dr, stop 50",-27.480290,153.095559
010236,Felstead St at Heflin Street,-27.400825,152.995507
010237,Felstead St at Heflin Street,-27.400674,152.995357
010239,Old Northern Rd at Hamilton Road,-27.379129,152.981012
001024,Grand Ave at Grand Avenue Cascade,-27.627832,152.966164
010240,"Oxford St at Wambool Street, stop 31",-27.451234,153.058865
010241,Nottingham Rd at Avondale,-27.628634,153.034699
010244,Nottingham Rd at Avondale,-27.628514,153.033491
010245,"Indooroopilly Rd at Jack Cook Park, stop 18/19",-27.494259,152.990764
010246,"Indooroopilly Rd at Jack Cook Park, stop 18/19",-27.493965,152.990954
010249,"Arnica Cr at Mantias Street, stop 56",-27.306492,153.019112
010250,"Arnica Cr near Korina St, stop 57",-27.305887,153.016431
010251,"Coronation Dr at Chasely Street, stop 8",-27.477880,153.000034
010252,Felstead St at Sizer Street,-27.400581,152.993878
010253,Felstead St at Sizer Street,-27.400439,152.993788
010254,England Rd near Pylara Cr,-27.394089,152.932531
010256,Dorville Rd at Dorville North,-27.346523,153.022243
010258,Dorville Rd at Denver East,-27.350295,153.021698
010259,Dorville Rd at Denver East,-27.350819,153.021421
001026,Grand Ave at Grand Avenue Cascade,-27.627975,152.965808
010260,"Juliette St at Baron Street, stop 18",-27.504483,153.041201
010261,Alderwood St at Benton Street Stop 67,-27.590389,153.019507
010262,"Chatsworth Rd at Rossmore Ave, stop 32",-27.504762,153.064867
001027,Alderwood St at Benton Street Stop 67,-27.590498,153.019496
010270,"Samford Rd at Alderley Junction, stop 26",-27.425292,153.000447
010271,"Samford Rd at Musgrave Terrace, stop 27",-27.424411,152.998390
010272,"Samford Rd at Camborne Street, stop 28",-27.423746,152.995656
010273,"Samford Rd at Bond Street, stop 29",-27.423071,152.992514
010276,South Pine Rd near Mott St,-27.313642,152.989000
010277,South Pine Rd near Station St,-27.312393,152.990364
010278,South Pine Rd near Deakin St,-27.325215,152.987129
010279,South Pine Rd near Hinkler Ct,-27.316906,152.988418
001028,"Hampden St at St Ledger, stop 29",-27.428979,153.075796
010280,South Pine Rd near Kremzow Rd,-27.317309,152.988558
010281,South Pine Rd near Leitchs Rd,-27.326135,152.977658
010282,South Pine Rd near Leitchs Rd,-27.326591,152.978664
010284,Strathpine Rd near Bald Hills Rd,-27.317246,153.009230
010285,Hoyland St near Kluver St,-27.316976,153.016549
010286,Hoyland St near Dresden St,-27.317362,153.016446
010288,"Hyde Rd at Rome Street North, stop 27",-27.510793,153.010575
010289,Castle St near Seabrook St,-27.403864,153.032501
001029,Battersby St near Victory St,-27.354094,153.039921
010296,Keong Rd near Seligan St,-27.348284,152.977226
010297,Keong Rd near Malvern Rd,-27.349890,152.976938
010298,"Strathpine Shopping Centre, stop D",-27.307531,152.993501
010299,Mawson St at Oates Street,-27.401248,153.023877
001030,"Nudgee Rd at Lilley Street, stop 34",-27.425245,153.072665
010302,"Wishart Rd near Elkana Pl, stop 76",-27.548349,153.099875
010303,"Beaudesert Rd at Moorooka South, stop 38",-27.544712,153.020033
010304,"Wishart Rd near Elkana Pl, stop 76",-27.548466,153.099930
010305,Dawson Pde near Link Rd,-27.407642,152.962107
010306,Troughton Rd at QEII Hospital,-27.559500,153.050659
010307,"Delavan St at Delavan Street Park, stop 85",-27.561427,153.096480
010308,Sydney St at Llewellyn Street,-27.472553,153.044225
010309,"Logan Rd at Bardsley Avenue, stop 20",-27.505209,153.048783
001031,"Nudgee Rd near Lilley St, stop 34",-27.425026,153.072864
010310,"Logan Rd at Mt Gravatt Corner, stop 44",-27.558713,153.080741
010311,Dawson Pde at Grovely station,-27.404816,152.961800
010313,"Newman Ave at Kelsey Street, stop 35",-27.497859,153.069195
010314,"Troughton Rd at QEII Hospital, stop 37",-27.559921,153.050402
010316,"York St near Prince St, stop 29",-27.495156,152.977723
010322,"Soudan St near Bent St, stop 24",-27.484285,152.980125
010324,"Exmouth St near Camp St, stop 26",-27.484734,152.977131
010325,"James St near Arthur St, stop 9",-27.457563,153.041070
010326,"Compton Rd at Piccadilly Way, stop 28",-27.612198,153.072993
010327,"Kerry Rd at Beatty Rd, stop 52",-27.571551,153.015036
010328,"Kerry Rd at Beatty Rd, stop 52",-27.571423,153.014931
001033,Norris Rd near Barbour Rd,-27.322829,153.026712
010330,"Merthyr Rd at Hawthorne Street, stop 13",-27.463393,153.049733
010331,"Macquarie St at Saratoga, stop 13A",-27.461113,153.050037
010332,"Merthyr Rd at Hawthorne Street, stop 13",-27.463330,153.049984
010334,Strathmore St near Connolly St,-27.403461,153.027600
010335,"Logan Rd at Raff Ave, stop 25",-27.513511,153.054424
010336,"Cole St near Elfreda St, stop 27",-27.428508,152.995632
010337,"Wattle St near Mawson St, stop 35",-27.400867,153.019958
010338,"Cole St near Hilda St, stop 27",-27.428407,152.995528
010339,Scott St at Chisholm Street,-27.402326,153.020815
001034,Norris Rd near Barbour Rd,-27.323259,153.026776
010340,Scott St at Chisholm Street,-27.402491,153.021184
010341,"Logan Rd at CB Mott Park, stop 26",-27.515304,153.056685
010342,"Cole St at Cole - Lloyd, stop 28",-27.426875,152.995934
010344,"Cole St at Cole - Lloyd, stop 28",-27.426495,152.995836
010346,"Holland Rd at Greenmount Avenue, stop 45",-27.517091,153.069360
010347,"Elgar St at Rowton Street, stop 47",-27.519720,153.072848
010349,"Elgar St near Olroy St, stop 47a",-27.521005,153.070803
001035,Wallace St near Farnell St,-27.389130,153.027166
010351,Harcourt St at Hough Lane,-27.454457,153.045954
010352,Harcourt St at Hough Lane,-27.455284,153.044979
010354,"Seville Rd at Seville Shops, stop 48",-27.521385,153.074012
010355,"Osborne Rd at Osborne North, stop 51",-27.402206,152.979126
010356,"Cradock St at Mar Street, stop 49",-27.523064,153.075965
010358,"Glindemann Dr near Seville Rd, stop 47b",-27.522808,153.070971
010359,"Rainworth Rd at Norm Buchan Park East, stop 12",-27.465642,152.991736
001036,Battersby St near Birdwood St,-27.354340,153.040856
010360,"Glindemann Dr near Seville Rd, stop 47b",-27.522831,153.071139
010362,"Seville Rd near Glindemann Dr, stop 47c",-27.522817,153.071953
010363,Victoria Park Rd at QUT Victoria Park Rd,-27.452014,153.016081
010364,"Seville Rd near Dobbie St, stop 47c",-27.522644,153.072017
010366,"Kessels Rd at Cremin Street, stop 60/45",-27.560331,153.080316
010368,"Logan Rd at St Bernard, stop 42",-27.553968,153.079725
010369,"Compton Rd at Piccadilly Way, stop 28",-27.611986,153.073503
001037,"Upper Lancaster Rd near Wren Street, stop 25",-27.430105,153.057404
010370,"Elgar St near Olroy St, stop 47a",-27.521158,153.070353
010371,"Upper Lancaster Rd near Wren Street, stop 25",-27.430224,153.057326
010372,"Holland Rd at Greenmount Avenue, stop 45",-27.517006,153.069760
010373,Dawson Pde near Casey St,-27.401056,152.961319
010374,"Moggill Rd at Bredden Street, stop 32",-27.508160,152.952272
010375,Dawson Pde near Madsen St,-27.402725,152.961675
010376,"Moggill Rd at Marshall Lane, stop 33",-27.507521,152.950016
010377,"Marshall Lane near Gilruth Rd, stop 36",-27.513475,152.946793
010378,Moggill Rd at Rafting Ground Park,-27.520382,152.922876
010379,"Gilliat St near Camoola St, stop 36b",-27.412563,152.945302
010380,"Lanark St near Kilkivan Ave, stop 39a",-27.512468,152.932650
010381,"Davies Rd near Coolibah St, stop 33",-27.454754,152.975708
010383,"Arthur Tce near Dean St, stop 15A",-27.450517,152.994264
010384,"Brisbane St at Kayes Rocks, stop 15",-27.488712,152.993981
010385,"Brookfield Rd at Kenmore West, stop 37",-27.506013,152.933696
010386,Ipswich Rd at Clifton Hill near Beaudesert Rd,-27.525557,153.022598
010387,Dawson Pde at Crampton St,-27.410908,152.962524
010388,"Cavendish Rd at Shire Street, stop 27/28",-27.496449,153.060535
001039,Montague Rd at Queensland Theatre,-27.472137,153.013537
010391,Gympie Rd near Bald Hills Rd,-27.321863,153.009095
010392,"Cavendish Rd at Arlington Street, stop 37",-27.511719,153.066330
010393,"Cavendish Rd at Stoneleigh Street, stop 38",-27.512769,153.069986
010394,"Cavendish Rd at Cavendish Rd Reservoir, stop 40",-27.515466,153.072894
010395,"Cavendish Rd at Crystal Street, stop 50",-27.518807,153.078518
010396,"Ipswich Rd at Moorooka station, stop 38/39",-27.534291,153.015074
010397,"Glenlyon Dr near Marist Lane, stop 39C",-27.445143,152.979999
010398,"Glenlyon Dr near Cypress Dr, stop 39c",-27.445431,152.980032
010399,"Thomas St near Oxley Rd, stop 55",-27.530130,152.983353
010400,"Thomas St near Oxley Rd, stop 55",-27.529970,152.983501
010401,Archdale Rd near Ballylin St,-27.401122,152.931482
010404,"Nagle St near Pickworth St, stop 79",-27.558246,153.075737
010405,"Tora St near Ilya St, stop 77",-27.556472,153.071096
010406,"Delavan St at Wolcott Street, stop 86",-27.561696,153.093255
010407,"Delavan St at Wolcott Street, stop 86",-27.561583,153.093236
010408,"Delavan St at Delavan Street Park, stop 85",-27.561268,153.096520
010409,"Cavendish Rd at York Street, stop 29",-27.498590,153.061705
001041,"Montague Rd near Brereton St, stop 5",-27.474026,153.011385
010410,"Dawson Rd at Brockhouse Street, stop 77",-27.553974,153.086976
010411,"Logan Rd at Bardsley Avenue, stop 20",-27.505208,153.048331
010412,"Hillgrove St at Kingsway Street, stop 41",-27.544358,153.087519
010413,"Wishart Rd at Pinner Street, stop 43",-27.546712,153.088959
010414,"Tryon St at Mascar Street, stop 81",-27.559157,153.084706
010415,Satinay St at Samford - Blackbutt,-27.414021,152.955433
010416,"Windsor Rd at Windsor - Prospect, stop 9",-27.452119,153.006995
010417,"Windsor Rd near Errard St, stop 12",-27.446478,153.006252
010418,"Ashgrove Ave near Bott St, stop 25",-27.442376,152.995539
010420,"Arinya Rd near Mirrabooka Rd, stop 39",-27.440478,152.983624
010422,Dawson Pde near Crampton St,-27.410990,152.962677
010423,"Kingsford Smith Dr at Remora Road, stop 29",-27.438135,153.069574
010425,Agnew St at Seven Hills Stop 42,-27.476945,153.070521
010426,"Cornwall St at Rialto Street, stop 19a",-27.503623,153.050916
010427,"Cornwall St at Darreen St, stop 19",-27.503087,153.047706
010428,"Kadumba St near Eversley Tce, stop 23",-27.515542,153.015386
010429,"Tennyson Memorial Ave at Brisbane Golf, stop 36",-27.526926,153.009470
001043,"Montague Rd near Mollison St, stop 6",-27.475406,153.009845
010430,"Softstone St near King Arthur Tce, stop 38",-27.524981,153.004506
010431,"Wharf St near Bridge St, stop 52",-27.510183,152.974861
010432,"Hawken Dr at Tarcoola Street, stop 27",-27.504585,153.000393
010433,"Wharf St near Bridge St, stop 52",-27.510196,152.975053
010437,"Beaudesert Rd at Stimpson Park, stop 29",-27.526054,153.022998
010438,"Evans Rd at Pentex Street, stop 43",-27.544907,153.030805
010439,"Webster Rd at Lindley Street, stop 29",-27.413990,153.016356
001044,"Montague Rd at Mollison Street, stop 6",-27.476066,153.008904
010440,Griffith University Stop A,-27.554088,153.053717
010441,"Evans Rd at Pentex Street, stop 43",-27.545278,153.032437
010444,"Endiandra St near Satinash St, stop 87",-27.615712,153.032119
010445,Algester Rd at Crestone Street Stop 90/89,-27.623000,153.031444
010446,"Tufnell Rd at Earnshaw Road, stop 27",-27.379112,153.080867
010447,Remora Rd at Portside,-27.438909,153.070472
010448,Algester Rd at Crestone Street Stop 90/89,-27.622835,153.031380
001045,"Montague Rd at Donkin Street, stop 7",-27.476864,153.008210
010451,"Beaudesert Rd at Boyland Avenue, stop 42/41",-27.563743,153.022783
010453,Kerry Road East,-27.572781,153.023796
010459,Keong Rd near Crofty St,-27.351434,152.976661
001046,"Montague Rd at Donkin Street, stop 7",-27.476809,153.008078
010460,"Kadumba St near Eversley Tce, stop 23",-27.515571,153.014721
010463,"Deagon St near Brisbane St, stop 37",-27.313792,153.063205
010464,"Winslow St at Rowe Tce, stop 67/68",-27.569544,152.957583
010465,"Winslow St at Rowe Tce, stop 67/68",-27.569609,152.957844
010467,"Northbrooke St near Allamanda Ct, stop 59",-27.543988,152.947992
010468,"Northbrook St at Cityview Rd, stop 59",-27.544914,152.948262
010469,"Oldfield Rd at Oldfield Shops, stop 57a",-27.544580,152.951381
001047,"Montague Rd at Davies Park, stop 8",-27.478641,153.006306
010470,"Oldfield Rd at Oldfield Shops, stop 57a",-27.544347,152.951376
010472,"Kirby Rd near Zillmere Rd, stop 52a",-27.358280,153.027710
010475,"Stanley Rd at Lunga Street, stop 39/40",-27.488099,153.088123
010476,Ironbark Rd near Birchley St,-27.495278,152.942218
010477,Keong Rd near Rafter Ave,-27.354053,152.976196
010478,Keong Rd near Dawn Rd,-27.358135,152.974998
010479,Boundary Street Hail 'n' Ride,-27.487712,153.010717
001048,"Montague Rd at Davies Park, stop 8",-27.478886,153.006003
010480,Boundary near Bristol Street Hail 'n' Ride,-27.486170,153.011009
010481,Boundary at Whynot Street Hail 'n' Ride,-27.485213,153.011190
010482,Boundary at Granville Street Hail 'n' Ride,-27.483559,153.011491
010483,Brighton Road Hail 'n' Ride,-27.483713,153.015412
010484,Keong Rd near Hampshire Tce,-27.359409,152.973595
010486,"Dornoch Tce near Gladstone Rd, stop 21a",-27.487328,153.018410
010487,"Dornoch Tce near Hampstead Road, stop 21",-27.487036,153.016652
010488,Dornoch Terrace Hail 'n' Ride,-27.487118,153.008030
010489,Edmondstone Street at Musgrave Park Hail 'n' Ride,-27.479395,153.015465
001049,"Montague Rd at Ashington Street, stop 9",-27.480984,153.004817
010490,Edmondstone St near Melbourne St hail 'n' ride,-27.477054,153.013866
010491,Edmondstone near Vulture Street Hail 'n' Ride,-27.481170,153.016684
010493,"Dornoch Tce at Hampstead Road, stop 21",-27.487223,153.015723
010494,Hampstead near Bellevue Street Hail 'n' Ride,-27.485604,153.016115
010495,Hampstead Road Hail 'n' Ride,-27.484399,153.016515
010497,"Musgrave Rd at Indooroopilly Shopping Ctr, stop F",-27.499324,152.972039
010498,Ironbark Rd near Birchley St,-27.495254,152.942357
010499,Jane Street,-27.478860,153.009555
001050,"Montague Rd at Ashington Street, stop 9",-27.480920,153.004695
010500,Old Northern Rd at Chinook,-27.383099,152.983424
010501,Patricks Rd near Leslie St,-27.397132,152.956684
010502,Sussex Street Hail 'n' Ride,-27.483064,153.012748
010503,Sussex Street Hail 'n' Ride,-27.481665,153.013013
010504,Vulture Street Hail 'n' Ride,-27.482155,153.019475
010505,Vulture Street Hail 'n' Ride,-27.481004,153.012684
010506,Boundary near Vulture Street Hail 'n' Ride,-27.481997,153.011797
010507,Brighton at Franklin Street Hail 'n' Ride,-27.483418,153.013467
010508,"Chalk St near Challis Lane, stop 20",-27.421603,153.035405
010509,"McLennan St near Chalk St, stop 19",-27.422645,153.038075
001051,"Montague Rd near Victoria St, stop 10",-27.482510,153.003810
010510,"McLennan St near Chalk St, stop 19",-27.422483,153.038229
010511,"Denham St at Childs Street, stop 33",-27.325845,153.042782
010512,"Stringybark Dr at Martindale Street, stop 47",-27.374125,153.005762
010513,"McLennan St at Marne Street, stop 17",-27.425279,153.037591
010514,"McLennan St at Marne Street, stop 17",-27.425442,153.037685
010515,"Stanley Rd at Sage Street, stop 41",-27.488524,153.091129
010516,"Tufnell Rd at Earnshaw Road, stop 27",-27.379178,153.080746
010517,Keong Rd near Hampshire Tce,-27.359430,152.973374
010518,Keong Rd near Dawn Rd,-27.358356,152.974557
010519,Griffith University Stop B,-27.553873,153.054549
001052,"Montague Rd near Victoria St, stop 10",-27.482327,153.003769
010523,"Cornwall St at Raby Street, stop 19b",-27.503681,153.051961
010524,"Bapaume Rd at Dobbs Street, stop 63",-27.534070,153.062067
010526,Wynnum Esp near Florence St,-27.441660,153.175623
010527,"Logan Rd at Mt Gravatt Showgrounds, stop 38A",-27.544392,153.081786
010529,"Scotts Rd at Winslow St, stop 66",-27.570052,152.954089
001053,"Montague Rd at Gray Rd, stop 13",-27.487387,153.000760
010530,"Kadumba St near Fairfield Rd, stop 22",-27.515842,153.017523
010533,Handford Rd at Handford - Roghan,-27.341940,153.041530
010534,Creek Rd at Greenmeadow,-27.521697,153.096770
010535,John Street near Julie Rd,-27.611994,152.934843
010536,Mt Gravatt Capalaba Rd at Agaton,-27.555061,153.098121
010537,Ridgewood Rd at Ridgewood Heights,-27.624362,153.027516
010538,Mt Gravatt Capalaba Rd at Ham Road South,-27.552940,153.102870
010539,Hornibrook Hwy at Eventide,-27.290303,153.062159
001054,"Montague Rd at Gray Rd, stop 13",-27.487242,153.000701
010540,Hornibrook Hwy at Brighton Bayside Park,-27.287539,153.062560
010541,Hornibrook Hwy at Eventide Aged Home,-27.287674,153.062651
010543,John Street near Skepper St,-27.612041,152.934978
010544,Beaconsfield Tce near Duke St,-27.292756,153.062122
010545,Beaconsfield Tce near Princess St,-27.296468,153.061714
010546,Beaconsfield Tce near Shepherd St,-27.296567,153.061867
010547,Beaconsfield Tce near Seaview St,-27.299955,153.061953
010548,Beaconsfield Tce near Seaview St,-27.299583,153.062031
010549,Brighton Tce near Twelfth Ave,-27.304133,153.062670
001055,"Montague Rd at Cordeaux Street, stop 30/14",-27.488328,153.000018
010550,Beaconsfield Tce near Twelfth Ave,-27.303383,153.062720
010551,Brighton Tce near Tenth Ave,-27.307409,153.063814
010552,Brighton Tce near Tenth Ave,-27.308339,153.063865
010553,Brighton Tce near Wakefield St,-27.311923,153.065080
010554,Brighton Tce near Wakefield St,-27.311444,153.065059
010555,David St at Stephen Street,-27.611112,152.933829
010556,Muriel Ave at Stephen Street,-27.610379,152.934278
010557,Wakefield St at Freemasons,-27.312510,153.061621
010558,Wakefield St at Freemasons,-27.312635,153.061639
010559,Baskerville St at Nashville School,-27.307100,153.051609
001056,"Petrie Tce at Windmill Cafe, stop 3",-27.465670,153.012496
010560,Baskerville St at Nashville School,-27.307250,153.051974
010561,Baskerville St at Peace Park,-27.309945,153.056119
010562,Baskerville St at Peace Park,-27.310041,153.056063
010563,Craig St at Nashville,-27.303218,153.047107
010564,Craig St at Nashville,-27.303601,153.047396
010565,"Lascelles St at Brighton, stop 56a",-27.297394,153.050035
010566,"North Rd at Brighton North, stop 62",-27.293004,153.059142
010567,"North Rd at Bayview, stop 63",-27.291523,153.061743
010568,North Rd at St Kieran,-27.294353,153.054439
010569,North Rd at St Kieran,-27.294480,153.054440
010571,"Rainbow St at Sandgate station, stop 33",-27.321527,153.068816
010572,Norris Rd at Bracken Ridge Plaza,-27.329694,153.025461
010574,Faheys Rd West at Kingfisher,-27.347855,152.959243
010575,Lemke Rd at Sandgate AFC Ground,-27.336169,153.044680
010577,Waterford Rd at Carole Park Primary School,-27.608009,152.933411
010578,Balcara Ave at Beams - Balcara,-27.347737,153.027144
010580,"Strathpine Shopping Centre, stop A",-27.307899,152.992834
010581,Waterford Rd at Carole Park Primary School,-27.608126,152.933343
010582,"Kingsley Pde near Kadumba St, stop 24A",-27.515133,153.014117
010584,Faheys Rd West at Kingfisher,-27.347943,152.958997
010586,"Kingsley Pde near Violet St, stop 24",-27.514022,153.014321
010587,"Kingsley Pde near Violet St, stop 24",-27.514202,153.014165
010589,Old Northern Rd near Albany Forest Dr,-27.356880,152.969374
001059,"Hardgrave Rd near Vulture St, stop 9C",-27.480254,153.007434
010590,"South Pine Rd at Rogers Pde W, stop 44",-27.393963,152.977387
010597,"Piccadilly St at Haymarket Street, stop 48",-27.372967,153.040103
010598,Robinson Rd at Bassano Street,-27.367613,153.042528
010599,Robinson Rd at Bassano Street,-27.367927,153.043564
000106,North Quay Stop 106 near Herschel St,-27.468033,153.018369
001060,"Vulture St at West End School, stop 9",-27.480594,153.007636
010600,Elizabeth St at Kilkenny,-27.588571,153.021367
010601,Elizabeth St at Kilkenny,-27.588665,153.021261
010604,Taragon St near Chervil St,-27.314684,153.013705
010605,"Coriander St near Kluver St, stop 60",-27.316498,153.014735
010606,Coriander St near Kluver St,-27.315883,153.014995
010607,Kluver St near Bracken Ridge Rd,-27.306967,153.013260
010608,Kluver St near Bracken Ridge Rd,-27.306871,153.013459
010609,"Arnica Cr near Korina St, stop 57",-27.305818,153.016684
001061,"Vulture St at West End School, stop 9",-27.480489,153.007723
010610,"Arnica Cr near Mantias Street, stop 56",-27.306076,153.018309
010611,"Charlock Rd near Arnica Cr, stop 55",-27.306917,153.019334
010612,Bracken Ridge Rd at Wetlands,-27.309892,153.021040
010613,Bracken Ridge Rd at Wetlands,-27.310139,153.021939
010614,Norris Rd at Bracken Ridge Plaza,-27.330057,153.025551
010615,Phillips St near Tomah Rd,-27.328309,153.040703
010616,Phillips St at Tomah Street,-27.328441,153.040833
010617,Enbrook St near Appledore St,-27.329282,153.038887
010618,Enbrook St near Appledore St,-27.329241,153.039020
010619,Enbrook St near Mustang St,-27.330559,153.036244
001062,"Vulture St at Cambridge Street, stop 8",-27.480630,153.010155
010620,Enbrook St near Mustang St,-27.330599,153.035845
010621,Mustang St near Telegraph Rd,-27.331926,153.034399
010622,Mustang St near Telegraph Rd,-27.332102,153.034478
010623,Telegraph Rd near Mustang St,-27.332150,153.033055
010625,Roghan Rd at Roghan East,-27.343598,153.058763
010626,Roghan Rd at Roghan East near Sovereign Pl,-27.343733,153.058807
010627,Roghan Rd near Lindeman St,-27.343384,153.056419
010628,Roghan Rd near Lindeman St,-27.343263,153.056465
001063,"Vulture St at Cambridge Street, stop 8",-27.480778,153.010292
010630,Church Rd near Keyatta St,-27.352656,153.045851
010631,Church Rd at Keyatta Street,-27.352464,153.046005
010632,Church Rd at Church-Battersby,-27.355752,153.045296
010633,Church Rd at Church-Battersby,-27.355367,153.045482
010634,Church Rd at Church Road South,-27.359817,153.044633
010635,Church Rd at Church Road South,-27.359273,153.044610
010636,Zillmere Rd at Zillmere South,-27.360760,153.047538
010637,Zillmere Rd at Zillmere South,-27.360941,153.047895
010638,Greenford St at Merri Merri Park,-27.485491,152.939810
010639,Bielby Rd at Bielby Rise,-27.484577,152.936211
001064,"Vulture St at West End, stop 7",-27.480848,153.011631
010640,Bielby Rd at Bielby Rise,-27.484617,152.936345
010641,Mukurta St near Binyara St,-27.491979,152.938670
010642,"Strathpine Shopping Centre, stop C",-27.307633,152.993283
010644,Caloundra St at Janoah Gardens,-27.469690,153.170651
010645,Caloundra St at Janoah Gardens,-27.469328,153.170307
010646,Radford Rd at Manly Vista,-27.467845,153.162838
010647,Radford Rd at Manly Vista,-27.467873,153.161723
010648,Wondall Rd at Moreton Bay College,-27.469392,153.150372
010649,Wondall Rd at Moreton Bay College,-27.470010,153.150034
001065,"Boundary St at West End, stop 7",-27.480598,153.012199
010650,Preston Rd near Wynnum Rd,-27.453212,153.159226
010651,Preston Rd near Randall Rd,-27.453364,153.159530
010652,"Middle St near Troughton Rd, stop 53",-27.561068,153.049672
010653,Bridgnorth St near Boynedale St,-27.506019,153.111291
010654,Bridgnorth St near Boynedale St,-27.506150,153.111079
010655,Scrub Rd at Winstanley East,-27.508359,153.114691
010656,Scrub Rd at Winstanley East,-27.509301,153.114633
010657,Scrub Rd at Kilmorey near Fairway Pl,-27.514752,153.113468
010658,Scrub Rd at Kilmorey near Fairway Pl,-27.515158,153.113518
010659,Scrub Rd at Greendale,-27.521419,153.112297
001066,Gem Rd near Wyndarra St,-27.517828,152.932893
010660,Scrub Rd at Greendale,-27.520854,153.112284
010662,Fleming Rd at Chapel Woods,-27.493936,152.943951
010663,McCullough St at Granadilla,-27.572676,153.068941
010664,McCullough St at Granadilla,-27.572553,153.069114
010665,Padstow Rd at Devonlea,-27.573789,153.078229
010666,Padstow Rd at Devonlea,-27.574340,153.080053
010667,McCullough St at Brooklands,-27.570114,153.051793
010668,McCullough St at Brooklands,-27.570427,153.053000
001067,Federation St at Federation Park,-27.452298,153.152544
010671,"Norris Rd near Barbour Rd, stop 46",-27.324448,153.026439
010672,"Norris Rd near Barbour Rd, stop 46",-27.324569,153.026517
010673,Railway Pde near Bayview Tce,-27.368567,153.046378
010675,Piccadilly St near Haymarket St,-27.372245,153.040750
010676,Piccadilly St near Sandra St,-27.374168,153.039507
010677,Willcott St near Sunbury St,-27.375458,153.040232
010678,Halsmere St near Danette St,-27.376181,153.038322
010679,Creek Rd at Greenmeadows South,-27.527074,153.095364
001068,Federation St at Federation Park,-27.452334,153.152480
010680,Zillmere Rd near Halcomb St,-27.359973,153.042178
010682,Grey St at South Bank Cinemas,-27.478324,153.021226
010686,Kuran St at Gympie Rd,-27.389874,153.032113
010687,Honeysuckle Way at The Parks,-27.632736,153.057389
010688,Beaudesert Rd at Benhiam Street,-27.619123,153.050351
010689,Nottingham Rd near Algester Rd,-27.627866,153.030055
001069,Federation St near School Rd,-27.452858,153.151016
010690,Algester Rd at Nottingham,-27.628854,153.029152
010691,Algester Rd at Nottingham,-27.628120,153.028891
010692,"Algester Rd at Parkinson, stop 90",-27.635390,153.029342
010694,Nottingham Rd near Algester Rd,-27.627851,153.031010
010695,Honeysuckle Way at Calamvale,-27.632189,153.053825
010696,Nottingham Rd at Lakewood,-27.629782,153.041683
010697,Nottingham Rd at Lakewood,-27.629603,153.041456
001070,"Boundary St at Jane Street, stop 6",-27.479406,153.012279
010700,"Montague Rd at Cordeaux Street, stop 14",-27.488331,153.000178
010702,Phillips St at Enbrook Street,-27.327920,153.038336
010703,"Merivale St near Russell St, stop 2A",-27.476474,153.017588
010704,"McLennan St near Storkey St, stop 16",-27.427516,153.037200
010705,"McLennan St near Bale St, stop 16",-27.428139,153.037212
010706,Albion Rd at Haddock Street Stop 15,-27.428922,153.034622
010707,Albion Rd at Haddock Street Stop 15,-27.429058,153.034680
010708,Phillips St at Enbrook Street,-27.327997,153.038135
010709,Stanley St at Gallery of Modern Art,-27.471601,153.017520
001071,Jane near Amersham Street,-27.479066,153.010981
010710,Sneyd St near Oconnell Tce,-27.447852,153.032114
010711,Honeysuckle Way at Calamvale,-27.632362,153.053519
010712,Taragon St near Chervil St,-27.314704,153.013103
010714,Zillmere Rd near Halcomb St,-27.360188,153.042768
010715,Robinson Rd West near Fisher Pde,-27.367318,153.040575
010716,Robinson Rd West at Fisher Parade,-27.367463,153.040565
010718,Grand Ave at Grand Avenue Lake,-27.627095,152.963445
010719,Grand Ave at Grand Avenue Lake,-27.626995,152.963535
001072,Federation St near School Rd,-27.452796,153.151047
010723,"Esker St near Eagle Farm Rd, stop 54a",-27.421698,153.120759
010724,"Seventeen Mile Rocks Rd at Mosman Court, stop 76",-27.539951,152.953522
010729,"Macquarie St at Saratoga, stop 13A",-27.460415,153.050161
001073,"Boundary St at Jane Street, stop 6",-27.479066,153.012471
010730,"Strathpine Shopping Centre, stop E",-27.307483,152.993701
010732,Albany Creek Rd at Leitchs Road,-27.345633,152.976185
010733,Dillingen St near Ironbark Rd,-27.493686,152.940001
010734,Dillingen St near Diamantina St,-27.493797,152.940002
010736,Oconnell Tce at Hamilton Place,-27.448644,153.034286
010737,Hamilton Pl near Jeays St,-27.447972,153.035387
010738,OConnell Terrace near Bowen Bridge Rd,-27.448032,153.029849
010739,"Commercial Rd at Florence Street, stop 13",-27.454132,153.045884
001074,"Boundary St at West End Junction, stop 5",-27.477889,153.012562
010740,"Commercial Rd near Leopold St, stop 12",-27.453054,153.041594
010741,"Commercial Rd near Stratton St, stop 12",-27.452894,153.041478
010742,"Algester Rd at Parkinson, stop 90",-27.636898,153.030696
010743,Beaudesert Rd at Illaweena Street,-27.637522,153.044795
010745,"Algester Rd at Parkinson East, stop 92",-27.638567,153.040471
010746,"Algester Rd at Parkinson East, stop 92",-27.638737,153.040656
010747,Algester Rd at Lake Eyre Crescent Stop 91,-27.638416,153.034449
010748,Algester Rd at Lake Eyre Crescent Stop 91,-27.638527,153.033753
010749,"Seventeen Mile Rocks Rd at Mosman Court, stop 76",-27.539426,152.953218
001075,"Boundary St at West End Junction, stop 5",-27.477756,153.012700
010750,"Rocks Riverside Park, stop 75",-27.541470,152.955882
010751,"Rocks Riverside Park, stop 75",-27.541340,152.955378
010752,Skyring Tce near Cunningham St,-27.449985,153.043539
010753,"Windermere Ave at Ellerwood Place, stop 77",-27.536792,152.952277
010754,"Windermere Ave at Ellerwood Place, stop 77",-27.536845,152.952423
010755,Monier Rd at Monier Road Shops,-27.559016,152.951460
010756,"Duporth Rd near Loyal St, stop 59",-27.555035,152.958891
010757,"Duporth Rd near Seventeen Mile Rocks Rd, stop 59",-27.553803,152.959318
010758,Sinnamon Rd at Windermere Estate stop 78,-27.534144,152.952342
010759,Sinnamon Rd at Windermere Estate stop 78,-27.534026,152.951963
001076,"Melbourne St at Manning Street, stop 4",-27.476209,153.014145
010760,"Algester Rd at Injune Cct, stop 93",-27.638536,153.046148
010761,"Algester Rd at Lichfield Place, stop 93",-27.638364,153.043654
010762,Illaweena St at Tamarisk Way,-27.638974,153.049022
010763,Illaweena St at Tamarisk Way,-27.639030,153.048514
010765,Illaweena St at Waterstone,-27.639575,153.052317
010770,Mt Petrie Rd at Vivaldi Place,-27.543427,153.121427
010771,New Cleveland Rd near Judd St,-27.491651,153.158536
010773,New Cleveland Rd near Green Camp Rd,-27.493150,153.168245
010774,New Cleveland Rd near Archer St,-27.493100,153.167139
010775,New Cleveland Rd near Feathertail Pl,-27.492510,153.163248
010776,Tilley Rd near Grassdale Rd,-27.497681,153.151942
010777,Tilley Rd near Grassdale Rd,-27.498826,153.151872
010778,Tilley Rd near London Rd,-27.502773,153.150855
010779,Tilley Rd at London Road,-27.501489,153.150941
010780,"King George Square, 2A",-27.468612,153.024236
010781,"King George Square, 1A",-27.467881,153.023257
010782,"King George Square, 2B",-27.468446,153.024066
010783,"King George Square, 1B",-27.468046,153.023430
010785,"King George Square, 1C",-27.468200,153.023619
010786,"King George Square, 2D",-27.468114,153.023723
010787,"King George Square, 1D",-27.468366,153.023790
010788,"King George Square, 2E",-27.467949,153.023547
010789,"King George Square, 1E",-27.468532,153.023961
010790,"King George Square, 2F",-27.467795,153.023362
010791,"King George Square, 1F",-27.468699,153.024132
010792,"Roma Street busway, platform 2",-27.465942,153.019200
010793,"Roma Street busway, platform 1",-27.466083,153.019374
010794,Roma Street busway station,-27.466097,153.019445
010795,"Boggo Road station, platform 5",-27.494044,153.030604
010796,"Boggo Road station, platform 6",-27.493932,153.030193
010797,"PA Hospital station, platform 1",-27.496767,153.034195
010798,"PA Hospital station, platform 2",-27.496787,153.033604
010799,Lower Level at PA Hospital station,-27.496716,153.034086
001080,"Melbourne St at Manning Street, stop 4",-27.476242,153.014353
010800,Mukurta St near Binyara St,-27.491882,152.938564
010802,"Cultural Centre station, platform 1",-27.473232,153.019415
010803,Grand Ave East near Ascot Ave,-27.627464,152.969834
010804,"Moggill Rd at Kenmore Central, stop 35",-27.507821,152.938930
001081,"Browning St near Boundary Rd, stop 5",-27.477727,153.013140
010810,Grand Ave East near Ascot Ave,-27.627456,152.968325
010813,"Buranda busway, platform 2",-27.497218,153.039513
010814,"Buranda busway, platform 1",-27.497023,153.039185
010815,"Greenslopes station, platform 2",-27.511079,153.040395
010816,"Greenslopes station, platform 1",-27.510793,153.040072
010817,"Holland Park West station, platform 2",-27.528739,153.057514
010818,"Holland Park West station, platform 1",-27.528343,153.057272
010819,"Griffith University station, platform 2",-27.546738,153.064682
001082,"Browning St near Boundary St, stop 5",-27.477894,153.013113
010820,"Griffith University station, platform 1",-27.546550,153.064253
010821,"Upper Mt Gravatt station, platform 2",-27.564228,153.081751
010822,"Upper Mt Gravatt station, platform 1",-27.564032,153.081286
010823,"Eight Mile Plains station, platform 2",-27.578702,153.102071
010824,"Eight Mile Plains station, platform 1",-27.578465,153.101772
010826,Grand Ave West near Centennial Way,-27.625095,152.957196
010827,Inala Ave at Sherrington Park,-27.596691,152.985368
010828,Inala Ave at Sherrington Park,-27.596910,152.985562
010829,Gowan Rd at The Parks,-27.630484,153.058308
001083,"Browning St at Russell Street, stop 6",-27.479111,153.013958
010830,Gowan Rd at Parkside,-27.625961,153.059473
010831,Learoyd Rd at Range View,-27.598440,153.036696
010832,Learoyd Rd at Range View,-27.598913,153.037863
010833,Learoyd Rd at Paradise,-27.597664,153.027077
010834,Learoyd Rd at Paradise,-27.597304,153.026508
010835,Griffith University Sports Rd,-27.545954,153.064347
010836,Seventeen Mile Rocks Rd at Pannard St,-27.555230,152.963206
010837,"Glen Ross Rd at Bellwood St, stop 54",-27.554000,152.946277
010838,Klumpp Rd at Klumpp-Dawson,-27.552733,153.077813
010839,Algester Rd at Glenfield,-27.632291,153.029226
001084,"Browning St at Russell Street, stop 6",-27.479443,153.014328
010840,Algester Rd at Glenfield,-27.631681,153.029532
010841,Stockham Rd near Finnie Rd,-27.332819,153.062335
010842,Stockham Rd near Blackwood Rd,-27.332468,153.061783
010843,Bungama St near Station Rd,-27.325529,153.067918
010845,Barfoot St near Barefoot St,-27.308314,153.043486
001085,"Browning St at Besant Street, stop 7",-27.480815,153.015126
010857,"Underwood Rd near Warrigal Rd, stop 89",-27.590119,153.085647
010858,"Underwood Rd near Warrigal Rd, stop 89",-27.590401,153.086022
010859,"Underwood Rd at Mapleleaf Street, stop 88",-27.590782,153.089463
001086,"Browning St at Besant Street, stop 7",-27.481120,153.015477
010860,"Underwood Rd at Mapleleaf Street, stop 88",-27.590946,153.089711
010861,"Gaskell St near Underwood Rd, stop 87",-27.590612,153.092399
010862,"Gaskell St near Underwood Rd, stop 87",-27.590648,153.092515
010863,"Gaskell St at Alan Crescent, stop 86",-27.587593,153.092979
010864,"Gaskell St at Alan Crescent, stop 86",-27.587695,153.093083
010865,"Gaskell St at Angel Street, stop 85",-27.585348,153.094046
010867,"Gaskell St at The Glen, stop 84",-27.583923,153.097160
010868,"Gaskell St at The Glen, stop 84",-27.584445,153.096322
010869,"Logan Rd at Brandl Street, stop 83",-27.581283,153.096264
001087,"Vulture St at State High, stop 8",-27.481795,153.017965
010870,"Logan Rd at Brandl Street, stop 83",-27.581147,153.096488
010871,"Logan Rd at Miles Platting Road, stop 82",-27.576507,153.092832
010872,"Augstein St near Comer St, stop 59",-27.571752,153.042731
010873,"Logan Rd near Liverpool St, stop 81",-27.574176,153.091271
010874,Mount Cotton Rd at Alperton Rd,-27.558927,153.164366
010875,Mount Cotton Rd at Alperton Rd,-27.559131,153.163091
010876,Mount Cotton Rd near Moxon Rd,-27.555325,153.146386
010877,Mount Cotton Rd near Moxon Rd,-27.555167,153.146257
010878,Gainsborough Ave near Monet Cr,-27.541467,153.122722
010879,Gainsborough Ave near Monet Cr,-27.541665,153.123694
001088,"Vulture St at State High, stop 8",-27.481765,153.016932
010880,Old Cleveland Rd near Scrub Rd,-27.502005,153.114857
010881,Old Cleveland Rd near Stanbrough Rd,-27.505953,153.136564
010882,Old Cleveland Rd at Belmont Shooting Complex,-27.506890,153.137910
010884,"The Sleeman Centre, stop D",-27.509079,153.147224
010885,Old Cleveland Rd near Caradoc St,-27.517190,153.183770
010886,Old Cleveland Rd near Tinchborne St,-27.516541,153.182606
010890,Grieve Rd near Rochedale Rd,-27.552132,153.129196
010891,"Boundary Rd at Postle Street, stop 47",-27.568585,153.026027
010892,Boundary Rd at Beechcroft Street,-27.571331,153.044973
010893,Boundary Rd near Macgroarty St,-27.571494,153.045081
010894,"Boundary Rd at Augstein Street, stop 59",-27.570965,153.042449
010895,Grieve Rd near Mt Gravatt Capalaba Rd,-27.547424,153.124136
010897,"Pozieres Rd at Coromandel Street, stop 53a",-27.528812,153.056290
010898,Honeysuckle Way at Sunflower,-27.630374,153.048714
010899,Honeysuckle Way at Sunflower,-27.630433,153.047714
010900,Gympie Rd at Kedron North,-27.399715,153.031758
010901,Murphy Rd at Butt Street,-27.371482,153.036103
010902,Murphy Rd at Butt Street,-27.370207,153.036057
010903,Lemke Rd at Sandgate AFC Ground,-27.335754,153.044573
010904,Barbour Rd near Phillips St,-27.324148,153.028752
010905,Wynnum Rd at Stradbroke Avenue,-27.438825,153.161908
010906,Radford Rd near Wondall Rd,-27.466927,153.155196
010907,Radford Rd near Lewis Neibling Pl,-27.467037,153.156797
010908,Rochedale Rd at Redeemer Lutheran College,-27.584492,153.124320
010910,Rochedale Rd at Redeemer Lutheran College,-27.584579,153.124411
010911,Cribb Rd near Oakwood Way,-27.524654,153.116903
010912,Cribb Rd near Cowell St,-27.524308,153.115381
010915,Bridgnorth St at Belmont School,-27.504187,153.114905
010917,Winstanley St at Firmiston,-27.506691,153.107372
010918,Bridgnorth St at Belmont School,-27.504169,153.113964
001092,Vulture St at Brisbane Backpackers Resort,-27.481264,153.014822
010920,Abbotsford Rd at Bowen Hills,-27.445741,153.038086
010923,Moggill Rd at QCAT,-27.530125,152.911556
010924,"Birdwood Rd at Wellers Hill, stop 2",-27.522983,153.054233
010925,Birdwood Rd at Wellers Hill,-27.523134,153.054383
010926,Jephson St at Toowong,-27.485735,152.990496
010928,Rode Rd at Downfall Creek,-27.390214,153.004735
010929,Rode Rd at Downfall Creek,-27.390193,153.005571
001093,Tribune St at Colchester Street,-27.481349,153.021934
010930,Stewart Rd at Ashgrove near Devoy St,-27.444489,152.991623
010931,Troughton Rd at QEII Hospital,-27.559234,153.050505
010934,Pickering St at Pickering West,-27.418509,152.986890
010935,Gladstone St at Moorooka South,-27.546263,153.018618
010936,Queensport Rd at Queensport North,-27.458138,153.105909
010937,Queensport Rd at Queensport North,-27.458177,153.106046
010938,Meadowlands Rd near Bedivere St,-27.492325,153.107174
010939,Meadowlands Rd near Bedivere St,-27.492123,153.107163
010940,Pickering St at Pickering West,-27.418363,152.987055
010941,Abel Street Stop 45 near Robinson St,-27.540764,153.017268
010942,Abel Street Stop 45 near Robinson St,-27.540635,153.017153
010943,"Robinson St near Hamilton Rd, stop 44a",-27.538782,153.017987
010944,"Anson St near Muriel Ave, stop 46",-27.542194,153.015383
010945,"Anson St near Muriel Ave, stop 46",-27.542358,153.015229
010946,"Ipswich Rd at Rocklea Service Road, stop 46a",-27.544637,153.010198
010947,"Tarragindi Rd at Charmaine Street, stop 39",-27.536299,153.032228
010948,"Station Rd at Oasis, stop 78a",-27.575756,153.055040
010949,"Station Rd at Oasis, stop 78a",-27.575725,153.054922
010950,Klumpp Rd at Klumpp-Dawson,-27.552536,153.077346
010952,Warrigal Rd at Bordeaux,-27.579573,153.086946
010953,Warrigal Rd at Bordeaux,-27.578479,153.086997
010954,Gowan Rd at Gowan and Compton,-27.610803,153.062036
010955,Gowan Rd at Gowan and Compton,-27.611970,153.061968
010956,"Logan Rd at Australian Tax Office, stop 80",-27.564819,153.085772
010957,Pine Mountain Rd near Brechin St,-27.517804,153.099554
010958,Pine Mountain Rd near Linwood St,-27.518890,153.107872
010959,"Nursery Rd at Iris Street, stop 67",-27.530302,153.070274
010965,Great Western Shopping Centre,-27.415592,152.949570
010966,Cobalt St at Kindilan Place,-27.415835,152.943066
010967,Cobalt St at Kindilan Place,-27.416304,152.941872
010968,Partridge St near Tang St,-27.605892,152.971530
010969,Forest Lake Shops,-27.623729,152.969930
010970,Forest Lake Bvd at Kensington Way,-27.628779,152.974022
010971,College Ave at Halifax Court,-27.614808,152.973468
010972,College Ave at Hillbrook,-27.619345,152.972221
010973,College Ave at Hillbrook,-27.619342,152.972348
010974,Woodland Ave near Laricina Cct,-27.610930,152.971616
010975,Woodland Ave near Joseph Banks Ave,-27.611095,152.971847
010976,"Forest Lake Bvd at Forest Lake, stop A",-27.619132,152.965963
010977,"Forest Lake Bvd at Forest Lake, stop B",-27.614014,152.964453
010978,"Forest Lake Bvd at Forest Lake, stop B",-27.615538,152.965116
010979,"Forest Lake Bvd at Forest Lake, stop C",-27.610239,152.957668
010980,"Forest Lake Bvd at Forest Lake, stop D",-27.609254,152.951940
010981,"Forest Lake Bvd at Forest Lake, stop E",-27.605542,152.950392
010982,"Forest Lake Bvd at Forest Lake, stop E",-27.605929,152.949972
010985,"Brooke St at Rocklea Railway, stop 47",-27.544788,153.013469
010986,"Elmes Rd at Rocklea School, stop 47a",-27.546735,153.012770
010987,"Rosemary St at Rosemary South, stop 75A",-27.588422,152.976239
010988,"Rosemary St at Inala School, stop 75",-27.585666,152.975581
010989,Shelduck St near Swallow St,-27.603982,152.972669
010990,Grand Ave at Grand Avenue School,-27.625348,152.960155
010991,Grand Ave West near Centennial Way,-27.625231,152.957245
010992,Lochwood Ave at Woogaroo Lochwood,-27.619840,152.957307
010993,Lochwood Ave at Jindabyne Cct,-27.619881,152.959224
010994,Lochwood Ave at Jindabyne Cct,-27.620076,152.958527
010995,Lochwood Ave at Lochwood Broadwater,-27.618773,152.961926
010996,Lochwood Ave at Broadwater Way,-27.618882,152.961925
010997,Joseph Banks Ave near Leichhardt Cct,-27.613916,152.968325
010998,Joseph Banks Ave near Leichhardt Cct,-27.613730,152.969031
010999,Garden Rd at Government Road,-27.600228,152.950116
011000,Patricks Rd near Ferny Way,-27.396137,152.950223
011001,Forest Lake Bvd at Kensington Way,-27.628933,152.973823
011002,Old Cleveland Rd near Swinton St,-27.511935,153.175092
011003,"Moree St at View Street, stop 42",-27.405070,153.022757
011004,"Moree St at View Street, stop 42",-27.405001,153.023013
011005,"Moree St at Dawn Street, stop 43",-27.405290,153.024865
011009,Scott St near Evans St,-27.402878,153.023743
001101,"Mollison St near Boundary St, stop 5",-27.477084,153.011331
011010,Scott St near Oates St,-27.402738,153.023546
011012,"Lutwyche Rd at Leckie Road, stop 25",-27.411962,153.033347
011015,"Clifford St at Jardine Street, stop 32",-27.405503,153.021366
011016,"Clifford St at Jardine Street, stop 32",-27.405507,153.021489
011017,"Clifford St at Leiper Street, stop 31",-27.408014,153.021092
011018,"Clifford St at Leiper Street, stop 31",-27.408221,153.020934
011019,"Clifford St near Stafford Rd, stop 30",-27.410344,153.020635
001102,"Vulture St near Grey St, stop 4",-27.482966,153.024749
011020,"Clifford St near Stafford Rd, stop 30",-27.410505,153.020480
011022,"Collier St near Webster Rd, stop 30",-27.408591,153.017979
011023,Old Cleveland Rd near Bacton Rd,-27.508793,153.160978
011025,Old Cleveland Rd near Archer St,-27.508538,153.160977
011026,Stafford Rd at Stafford Central,-27.411136,153.022488
011027,"Stafford Rd at Turner Road, stop 29",-27.411450,153.024775
011028,"Stafford Rd at Beaconsfield Terrace, stop 28a",-27.411683,153.026597
011029,"Stafford Rd at Clarence Road, stop 27",-27.412126,153.029884
011030,"Stafford Rd at Clarence Road, stop 27",-27.412664,153.032880
011031,"Stafford Rd at Beaconsfield Terrace, stop 28a",-27.411834,153.026594
011032,"Stafford Rd at Turner Road, stop 29",-27.411480,153.023976
011033,Stafford Rd at Stafford Central,-27.411200,153.021799
011034,Old Cleveland Rd near Bacton Rd,-27.509071,153.156557
011035,Old Cleveland Rd near Bacton Rd,-27.508709,153.156748
011036,"Stafford Rd at Webster Rd, stop 30",-27.410697,153.018038
011037,"Stafford Rd at Webster Rd, stop 30",-27.410547,153.018007
011038,"Webster Rd at Stafford, stop 30",-27.409271,153.016969
011039,"Webster Rd at Stafford, stop 30",-27.408990,153.017319
011040,"Minimine St near Canonbar St, stop 31",-27.406303,153.016899
011041,"Minimine St near Canonbar St, stop 31",-27.406447,153.017116
011042,"Gympie Rd at Strathmore Street, stop 29/30",-27.403428,153.031549
011043,Old Cleveland Rd near New Cleveland Rd,-27.511581,153.175078
011045,"Richmond St near Haig St, stop 28",-27.413169,153.027259
011046,"Richmond St near Stafford Rd, stop 28",-27.412228,153.027295
011047,"Richmond St at Cowper Street, stop 27",-27.414766,153.026991
011048,"Richmond St at Cowper Street, stop 27",-27.415182,153.026799
011049,"Richmond St at Lennox Street, stop 26",-27.416562,153.026690
001105,"Cordelia St at Brisbane State High, stop 3",-27.479775,153.018319
011050,"Richmond St at Lennox Street, stop 26",-27.416988,153.026496
011051,"Richmond St at Aberdeen Terrace, stop 25A",-27.418097,153.026432
011052,"Richmond St at Aberdeen Terrace, stop 25a",-27.418423,153.026254
011053,"Thistle St at Khartoum Street, stop 25",-27.419179,153.026929
011054,"Thistle St at Khartoum Street, stop 25",-27.419489,153.027304
011055,"Thistle St at Gordon Street, stop 24",-27.419656,153.028505
011056,"Thistle St at Gordon Street, stop 24",-27.419578,153.028750
011057,"Thistle St at Shamrock St, stop 23",-27.419923,153.030541
011058,"Thistle St at Shamrock St, stop 23",-27.419830,153.030661
011059,"Bradshaw St near Lamington Ave, stop 22a",-27.420176,153.032903
011060,"Bradshaw St near Lucas St, stop 22a",-27.420273,153.032835
011061,"Webster Rd at Sayers Street, stop 30",-27.411857,153.016704
011063,Leckie Rd near Fifth Ave,-27.410560,153.034066
011066,Sadlier St near Leckie Rd,-27.407090,153.034383
011067,Leckie Rd near Sadlier St,-27.407151,153.034651
011069,Leckie Rd near Eleventh Ave,-27.404951,153.034923
011070,"Gympie Rd at Cremorne Rd, stop 28/27",-27.407418,153.032671
011071,"Gympie Rd at Leckie Road, stop 26/24",-27.412102,153.034079
011074,"Park Rd near Kedron Park Rd, stop 27",-27.415898,153.039141
011075,"Park Rd near Kedron Park Rd, stop 27",-27.416068,153.039124
011076,"Park Rd at Gorman Street, stop 28",-27.415114,153.040282
011077,"Park Rd at Gorman Street, stop 28",-27.415033,153.040904
011078,"Park Rd at Rose Street, stop 29",-27.414241,153.041899
011079,"Park Rd at Rose Street, stop 29",-27.413824,153.041929
011080,"Kent Rd near Rose St, stop 30",-27.413379,153.043078
011081,"Kent Rd near Rose St, stop 30",-27.413405,153.043197
011082,"Kent Rd near Melrose Lane, stop 31",-27.412096,153.043441
011083,"Kent Rd near Melrose Lane, stop 31",-27.411907,153.043354
011084,"Kent Rd near Judge St, stop 32",-27.410525,153.043621
011085,"Kent Rd near Judge St, stop 32",-27.410308,153.043785
011088,"Lodge Rd at Clark Street, stop 34",-27.410016,153.046354
011089,"Lodge Rd at Clark Street, stop 34",-27.410127,153.046362
001109,"Cordelia St at Musgrave Park, stop 2A",-27.477896,153.017028
011090,"Shaw Rd near Emma St, stop 35",-27.408743,153.046949
011091,"Shaw Rd at Parklands, stop 36",-27.406028,153.047362
011092,"Shaw Rd at Parklands, stop 36",-27.404716,153.047461
011093,"Shaw Rd near Henry St, stop 35",-27.407823,153.047197
011094,"Emma St near Shaw Rd, stop 32",-27.408397,153.047840
011095,"Emma St near Shaw Rd, stop 32",-27.408445,153.047423
011096,"Rose St near Dawson St, stop 29",-27.414183,153.046025
011097,"Rose St near Dawson St, stop 29",-27.414363,153.046240
011098,"Tarragindi Rd at Tarragindi Hill Reserve, stop 29a",-27.529419,153.033486
011099,"Tarragindi Rd at Tarragindi Hill Reserve, stop 29a",-27.529827,153.033520
011100,"Kedron Park Rd near Kent St, stop 26",-27.417683,153.039522
011102,"Kedron Park Rd near Lutwyche Rd, stop 26/25",-27.415653,153.037300
011104,"Lutwyche Rd at Norman Street, stop 22",-27.418369,153.035461
011105,"Lutwyche Rd at Wooloowin State School, stop 22",-27.416809,153.036587
011106,"Norman St near Lutwyche Rd, stop 24/25",-27.418070,153.036226
011107,"Lutwyche Rd at Norman Street, stop 21",-27.418729,153.035515
011109,"Bonney Ave at Adamson Street, stop 26",-27.416474,153.047978
011110,"Bonney Ave at Bayview Terrace, stop 25",-27.418028,153.047834
011111,"Bonney Ave at Bayview Terrace, stop 25",-27.419161,153.047514
011112,"Norman Pde at Adamson Street, stop 26",-27.416071,153.048379
011113,"Norman Pde at Morrison Road, stop 27",-27.416284,153.050667
011114,"Morrison Rd near Norman Pde, stop 27",-27.416099,153.051317
011115,"Junction Rd at Eagle Junction station, stop 28/1",-27.414810,153.050168
011116,"Junction Rd at Eagle Junction station, stop 28",-27.414887,153.049736
011117,"Emma St at Bertha Street, stop 31",-27.408591,153.049140
011118,"Emma St at Bertha Street, stop 31",-27.408710,153.049202
011119,"Emma St near Park Rd, stop 30",-27.408970,153.051169
001112,"Vulture St at Kennedy Street, stop 11",-27.485310,153.041444
011120,"Emma St near Park Rd, stop 30",-27.408906,153.051516
011121,"Park Ave near Lewis St, stop 29",-27.410236,153.051523
011122,"Park Ave near Lodge Rd, stop 29",-27.410964,153.051275
011123,"Park Ave near Stewart St, stop 28",-27.411923,153.051233
011124,"Park Ave near Howie St, stop 28",-27.412869,153.050948
011125,"Park Ave at Sydney Street, stop 27",-27.414370,153.050812
011126,"Park Ave at Sydney Street, stop 27",-27.414303,153.050701
011127,"Junction Rd at Stuckey Street, stop 28/2",-27.415596,153.056063
011128,"Junction Rd at Stuckey Street, stop 28/2",-27.415714,153.055988
001113,"Vulture St at Rosslyn Street, stop 12/15",-27.485710,153.044137
011130,"Toombul Shopping Centre station, platform A",-27.408457,153.060105
011131,"Toombul Shopping Centre station, platform F",-27.408436,153.059924
011133,"Toombul Shopping Centre station, platform B",-27.408234,153.060142
011134,"Kreutzer St near Grace St, stop 40/46",-27.407973,153.062431
011135,"Toombul Shopping Centre station, platform E",-27.408214,153.059958
011137,"Toombul Shopping Centre station, platform C",-27.408010,153.060179
011139,"Toombul Shopping Centre station, platform D",-27.407993,153.060007
001114,"Vulture St at Withington Street, stop 16",-27.486066,153.046474
011142,"Glen Ross Rd near Dove Tree Cr, stop 52",-27.553875,152.943595
011144,Northbrook St at Kobble Ct,-27.545367,152.946588
011146,"McPherson Rd at McPherson Cityview, stop 56a",-27.549721,152.949361
011147,"Widdop St at Walkers Way, stop 39/45",-27.409680,153.063538
011148,"Noble St at Noble - Sandgate, stop 39/45",-27.412817,153.059919
011149,"Noble St near Widdop St, stop 38/44",-27.413026,153.062209
001115,"Vulture St at Didsbury Street, stop 17",-27.486452,153.048934
011150,"Widdop St at Noble Street, stop 38/44",-27.412664,153.063075
011151,"Widdop St at Eliza Street, stop 37/43",-27.414608,153.062867
011152,"Widdop St at Eliza Street, stop 37/43",-27.414631,153.062740
011153,"Gellibrand St near Zillman Rd, stop 36/4",-27.415505,153.063614
011157,"Sandgate Rd at Eliza Street, stop 30",-27.414125,153.058598
011158,"Sandgate Rd at Noble Street, stop 31",-27.412723,153.058832
011159,"Sandgate Rd at Toombul, stop 32",-27.408611,153.059500
001116,"Stanley St E at Didsbury Street, stop 17",-27.488300,153.047128
011161,"Sandgate Rd at Noble Street, stop 31",-27.412531,153.059019
011162,"Sandgate Rd at Eliza Street, stop 30",-27.413680,153.058834
011164,"Sandgate Rd at Collins Street, stop 28",-27.417133,153.057538
011165,"Sandgate Rd at Collins Street, stop 28",-27.416984,153.057501
011166,"Moree St at Dawn St, stop 43",-27.405463,153.025140
011167,"Sandgate Rd at Clayfield, stop 27",-27.418546,153.055285
011168,"Cultural Centre station, platform 2",-27.473452,153.019127
011169,Sandgate Rd at Clayfield,-27.419263,153.054744
001117,"Stanley St E at Longlands Street, stop 16",-27.487957,153.044587
011170,"Sandgate Rd at London Street, stop 26",-27.420384,153.053306
011171,Bayview Tce at Armagh St,-27.418907,153.050718
011172,"Sandgate Rd at London Street, stop 26",-27.420912,153.052968
011173,Saraband Dr near Talisman Ct,-27.339137,152.942605
011174,Saraband Dr near Grenada Dr,-27.336893,152.946485
011175,Saraband Drive near Pascali Crescent,-27.333149,152.952639
001118,"Stanley St at Fisher Street, stop 15/11",-27.487669,153.042846
011180,"Bonney Ave at Victoria Parade, stop 24",-27.420745,153.047368
011181,"Bonney Ave at Victoria Parade, stop 24",-27.421646,153.047085
011182,"Bonney Ave near Lisson Gr, stop 23",-27.423088,153.046968
011183,"Bonney Ave near Batman St, stop 23",-27.423553,153.046765
011184,"Bonney Ave at Rees Avenue, stop 22",-27.425379,153.046578
011185,"Bonney Ave at Rees Avenue, stop 22",-27.425756,153.046394
011186,"Bonney Ave near Sandgate Rd, stop 21",-27.427398,153.046244
011187,"Bonney Ave near Sandgate Rd, stop 21",-27.427371,153.046125
011188,"Sandgate Rd at Hutton Street, stop 21",-27.428033,153.047026
011189,"Sandgate Rd at Hutton Street, stop 21",-27.428149,153.046863
001119,"Stanley St at Stanley Street East, stop 10",-27.487245,153.040132
011190,"Sandgate Rd at Camden Street, stop 20",-27.428547,153.043778
011191,"Sandgate Rd at Camden Street, stop 20",-27.428868,153.043143
011192,Abbotsford Rd at Albion Central Stop 19,-27.429582,153.041781
011193,"Sandgate Rd at Albion Central, stop 19",-27.430254,153.041746
011194,Gympie Rd at Cremorne Rd,-27.405117,153.031883
011195,Old Cleveland Rd at Barbeque St,-27.504860,153.132033
011196,"Crosby Rd near Dover St, stop 18",-27.432107,153.043711
011197,"Crosby Rd at Albion Road, stop 18",-27.432205,153.043495
011198,"Crosby Rd at Brothers, stop 19",-27.432489,153.045568
011199,"Crosby Rd at Brothers, stop 19",-27.432337,153.045380
011201,"Frodsham St near Ellen St, stop 19",-27.431050,153.043195
011202,"Whites St at Kenna Street, stop 46",-27.379419,153.008084
011203,Baildon St at Story Bridge Hotel,-27.468549,153.035744
011205,Bulimba St at Merry Street,-27.444284,153.056737
011206,Bulimba St at Merry Street,-27.444286,153.056854
011208,"Lutwyche Rd at East Street, stop 19",-27.423499,153.033476
011209,"Richlands bus station, stop B",-27.595526,152.947424
011210,"Richlands bus station, stop A",-27.595706,152.947547
011211,Pine Rd at Lions,-27.593623,152.950032
011212,"Kenna St near Whites Rd, stop 46",-27.379660,153.008524
011213,Pine Rd at Lions,-27.593803,152.950164
011214,"Lutwyche Rd at Lutwyche, stop 20",-27.422054,153.034024
011215,"Lutwyche Rd at East Street, stop 19/18",-27.423586,153.033754
011218,"Roblane St near Thondley St, stop 16/15",-27.430443,153.032550
011219,"Chalk St near Challis Lane, stop 20",-27.421499,153.035531
011220,Abbotsford Rd at Albion Road Stop 18,-27.431203,153.041973
011221,"Sandgate Rd at Albion Road, stop 18",-27.431661,153.042554
011222,"Sandgate Rd at Collingwood Street, stop 17",-27.432687,153.043111
011223,"Sandgate Rd at Collingwood Street, stop 17",-27.433244,153.043060
011225,"Abbotsford Rd at Bus Depot, stop 17/18",-27.435673,153.041693
011226,"Abbotsford Rd at Bus Depot, stop 17",-27.436377,153.041517
011229,"Sandgate Rd at Greg Chappell Street, stop 16",-27.435362,153.043783
011230,"Sandgate Rd at Greg Chappell Street, stop 16",-27.435973,153.043552
011231,"Sandgate Rd at Yowoggera Park, stop 15",-27.437625,153.042856
011233,Beams Rd at Golden Downs,-27.349281,153.032786
011235,Nudgee Rd at Armada,-27.384242,153.089499
011236,Nudgee Rd at Armada,-27.385218,153.088832
011239,"Breakfast Creek Rd at Newstead House, stop 12",-27.443352,153.044093
011241,Beams Rd at Golden Downs,-27.349051,153.032782
011242,Archerfield Rd near West Link Pl,-27.580811,152.956802
011243,Archerfield Rd near West Link Pl,-27.580843,152.957014
011249,Kokoda St near Wau Rd,-27.577893,152.938659
011250,Parkwood Dr North near Beech St,-27.633383,152.991504
011251,Parkwood Dr North near Laurel St,-27.632994,152.991119
011252,Parkwood Dr near Coolibah St,-27.635390,152.991639
011253,Parkwood Dr near Coolibah St,-27.635364,152.991521
011254,Parkwood Dr at Parkwood Drive South,-27.636898,152.990169
011255,Parkwood Dr near Acacia St,-27.636805,152.990261
011256,Parkwood Dr near Juniper St,-27.637009,152.987470
011257,Parkwood Dr near Juniper St,-27.636827,152.987624
011258,Ashgrove Ave at Ashgrove Marketplace,-27.444560,152.993792
011259,Parkwood Dr near Watergum St,-27.636607,152.988942
011260,Watson Rd at Acacia Ridge,-27.584540,153.020323
011261,Watson Rd at Acacia Ridge,-27.584572,153.020210
011262,Mitchell St at Acacia Ridge East,-27.589792,153.026631
011264,Inala Ave at Linacre,-27.594039,152.990988
011265,Inala Ave at Linacre,-27.593975,152.991482
011267,Wau Rd near Ramu St,-27.575481,152.941236
011269,"Kedron Brook station, platform 2",-27.415015,153.035297
011270,"Kedron Brook station, platform 1",-27.415338,153.035672
011271,"Lutwyche station, platform 2",-27.419910,153.034251
011272,"Lutwyche station, platform 1",-27.420330,153.034482
011273,Markham Street near Sanadanda St,-27.573561,152.941618
011274,Trinity Way at Westcott St,-27.653188,153.049754
011275,Trinity Way at Westcott St,-27.653326,153.049077
011276,MacQuarie Way at Lockyer Place,-27.654160,153.053031
011277,MacQuarie Way at Lockyer Place,-27.654029,153.053114
011278,MacQuarie Way at Buckley Drive,-27.654336,153.056887
011279,MacQuarie Way near Buckley Drive,-27.654028,153.056925
001128,"Gray Rd at Yumba, stop 15",-27.487901,153.003500
011280,Scrub Rd South,-27.531596,153.117733
011281,MacQuarie Way near Wembley Rd,-27.652378,153.068269
011282,Kirra - Scrub Rd South,-27.529297,153.115443
011284,Berkley - Scrub Rd South,-27.525827,153.112669
011285,Berkley - Scrub Rd South,-27.525736,153.112734
011287,Scrub Rd South near Oakley St,-27.528542,153.115252
011288,MacQuarie Way near Wembley Rd,-27.652408,153.068161
011289,Scrub Road South terminus,-27.531564,153.117697
001129,"Hoogley St at Yumba, stop 14",-27.488238,153.003826
011290,Boundary Rd near Archerfield Rd,-27.577927,152.956277
011291,Boundary Rd near Archerfield Rd,-27.578016,152.956355
011292,Blunder Road near Rosella St,-27.599299,152.987745
011294,Blunder Rd near Wallaroo Wy,-27.607003,152.987901
011295,Crossacres near Blunder Rd,-27.612971,152.985622
011297,Handford Rd at Liberty Dr,-27.348382,153.040118
011298,Joseph Banks Ave at Hillbrook Wy,-27.611608,152.976438
011299,Joseph Banks Ave near Hillbrook Wy,-27.611505,152.976999
011300,Dinterra Ave near Dunbil Ave,-27.401187,152.949209
011301,Hutton Rd near Yingally Dr,-27.391851,152.945002
011302,Dinterra Ave near Irruka Cr,-27.400276,152.946977
011303,Kolora Cr near Kootangal Cr,-27.402450,152.948659
011304,Hutton Rd near Yingally Dr,-27.391658,152.944738
011305,Joalah Cr near Kolora Cr,-27.403071,152.943315
011306,Ferny Way near Langura Cr,-27.399823,152.942860
011307,Bunora Ave near Bundar Cr,-27.397935,152.943553
011308,Langura Cr near Lurneah Cr,-27.401458,152.942721
011309,Tramway St near Arbor St,-27.406034,152.936381
011310,Ferny Way near Monaro Cr,-27.400142,152.939518
011311,Ferny Way near Langura Cr,-27.399688,152.942835
011312,Illuta Ave near Langura Cr,-27.402333,152.942455
011313,Dinterra Ave near Derrima Cr,-27.400221,152.946440
011314,Hutton Rd at Yalamba Ct,-27.388413,152.945319
011315,Kolora Cr near Joalah Cr,-27.403547,152.944066
011316,Kolora Cr near Ilga Gr,-27.403337,152.946739
011317,Bunora Ave near Coolibah Cr,-27.397802,152.943692
011318,Ferny Way near Monaro Cr,-27.400457,152.939087
011319,Patricks Rd near Ferny Way,-27.396087,152.950727
001132,"Orleigh St at West End Ferry, stop 15",-27.489816,153.002623
011320,Patricks Rd near Cycas St,-27.396678,152.954548
011321,Patricks Rd near Leslie St,-27.396995,152.956626
011322,Patricks Rd at Nepean Ave,-27.397440,152.959515
011323,Handford Rd at Liberty Dr,-27.348514,153.040325
011324,Dawson Pde at Grovely station,-27.405072,152.961974
011325,Dawson Pde near Link Rd,-27.408350,152.962347
011328,Toombul Interchange,-27.408265,153.060115
011329,Friday St at Kate St,-27.326915,153.081576
001133,"Morry St near Cordeaux St, stop 15a",-27.489319,153.002078
011330,Adams St near Finnie Rd,-27.328701,153.063388
011333,Beams Rd at St Flannans,-27.350243,153.038721
011334,"Beams Rd at Caravan Park, stop 49",-27.350329,153.040665
011335,Beams Rd at St Flannans,-27.350139,153.039196
001134,"Hoogley St at Leitch Lane, stop 13/19",-27.486720,153.004000
011340,Adams St near Albury St,-27.328388,153.063234
011342,Illaweena St at Waterstone,-27.639367,153.052569
011343,Illaweena St at Stretton Gardens,-27.640080,153.055644
001135,"Ganges St near Hoogley St, stop 13",-27.486675,153.004447
011351,Caladium St near Matthews Way,-27.489115,153.147274
011352,Caladium St near Matthews Way,-27.488742,153.147468
011353,Caladium St near Underwood St,-27.485454,153.147987
011354,Caladium St near Underwood St,-27.485556,153.148106
011355,Arenga St near Williams St,-27.481220,153.150889
011356,Arenga St near Williams St,-27.481368,153.150983
011357,Arenga St near Lexey Cres,-27.478979,153.151319
011358,Arenga St near Gordon Cr,-27.478858,153.151465
001136,"Hardgrave Rd at Hill End, stop 12",-27.486180,153.006176
011360,Green Camp Rd at Habitat Drive,-27.487094,153.166482
011361,Green Camp Rd near Gumdale St,-27.489890,153.166974
011362,Green Camp Rd at Habitat Drive,-27.487301,153.166752
011363,Green Camp Rd near New Cleveland Rd,-27.491154,153.167711
011364,Patricks Rd near Bargo St,-27.396761,152.954391
001137,"Hardgrave Rd at Whynot St, stop 11",-27.484226,153.006549
011370,Thorneside station,-27.486357,153.193220
001138,"Hardgrave Rd at Rialto, stop 10",-27.482846,153.006815
011380,Queen Elizabeth Dr at Saraband Dr,-27.341393,152.948946
011385,Arenga St near Manly Rd,-27.476663,153.151802
011388,Church Rd near Quarrion Street,-27.346234,153.047141
011389,Church Rd near Quarrion Street,-27.345061,153.047225
001139,"Hardgrave Rd at Rialto, stop 10",-27.482659,153.006994
011390,Roghan Rd near Lemke Rd,-27.341384,153.044195
011391,Roghan Rd at Lemke Rd,-27.341449,153.043696
011392,Roghan Rd near Springbok Street,-27.340211,153.036221
011393,Roghan Rd near Springbok Street,-27.340367,153.036052
011394,Lacey Highbridge,-27.335742,153.015906
011395,Gympie Rd near Roghan Rd,-27.335326,153.009266
000114,George Street Stop 114 near Alice St,-27.474169,153.026607
001140,"Hardgrave Rd at Whynot St, stop 11",-27.484067,153.006724
011401,Jane St at West End State School,-27.478681,153.008411
011406,McGinn Rd at Archdale Rd,-27.405088,152.930318
001141,"Hardgrave Rd at Hill End, stop 12",-27.486335,153.006294
001142,"Dornoch Tce at Doris Street, stop 17",-27.486947,153.006784
001143,"Dornoch Tce at Katrine Street, stop 18",-27.486919,153.009212
001145,"Dornoch Tce at Sankey Street, stop 20",-27.487190,153.012515
001146,"Dornoch Tce at Sankey Street, stop 20",-27.487299,153.012400
001147,"Saint James St near Paradise St, stop 21",-27.488636,153.014220
001148,"Paradise St near Athens St, stop 22",-27.488638,153.012667
001149,"Dornoch Tce at Katrine Street, stop 18",-27.487034,153.009292
001150,"Dornoch Tce at Doris Street, stop 17",-27.487175,153.006964
001151,"Athens St near Dudley St, stop 23",-27.489123,153.012231
001152,"Dudley St at Boundary Street, stop 24",-27.489518,153.010654
001159,"Gladstone Rd at Morris Street, stop 10",-27.485228,153.019547
000116,George Street Stop 116,-27.471313,153.023804
001161,"Gladstone Rd at Dorchester Street, stop 8",-27.482903,153.019604
001162,"Gladstone Rd at Morris Street, stop 10",-27.485244,153.019848
001163,"Gladstone Rd at Dornoch Terrace, stop 11",-27.488379,153.018769
001164,"Gladstone Rd at Dornoch Terrace, stop 11",-27.488433,153.018507
001165,Stephens Rd near Brook St,-27.484334,153.022878
001167,"Gladstone Rd at Ampthill Street, stop 13",-27.491075,153.019454
001168,"Gladstone Rd at Ampthill Street, stop 13",-27.491125,153.019298
001169,"Gladstone Rd at Wahcumba Street, stop 14",-27.493381,153.022051
000117,George Street Stop 117 near Turbot St,-27.469048,153.021597
001170,"Gladstone Rd at Wahcumba Street, stop 14",-27.493429,153.021907
001171,"Gladstone Rd at Pope Street, stop 15",-27.494157,153.023035
001172,"Gladstone Rd at Pope Street, stop 15",-27.494401,153.023243
001174,"Gladstone Rd at Dutton Park, stop 16",-27.496189,153.025973
001175,"Gladstone Rd at Dutton Park, stop 16",-27.495464,153.024955
001176,"TJ Doyle Memorial Park Dr at Gair Park, stop 17",-27.496976,153.027105
001178,"Gladstone Rd at Gair Park, stop 17",-27.497122,153.026935
001179,"Annerley Rd at Cemetery, stop 18/12",-27.498435,153.027879
000118,George Street Stop 118 near Turbot St,-27.468909,153.021461
001180,"Annerley Rd at Cemetery, stop 13/18",-27.498790,153.027698
001181,"Annerley Rd at Dutton Park, stop 17/12",-27.496474,153.027724
001182,"Annerley Rd at Dutton Park, stop 11/17",-27.495557,153.028054
001185,"Annerley Rd at Boggo Road, stop 11",-27.495161,153.027773
001186,"Annerley Rd at Dutton Park Primary, stop 10",-27.492790,153.027367
001187,"Annerley Rd at Dutton Park Primary, stop 10",-27.493016,153.027563
000119,George Street Stop 119 near Tank St,-27.467685,153.020271
001190,"Stephens Rd near Athlone St, stop 8",-27.489300,153.026470
001191,"Stephens Rd at St Laurence College, stop 7",-27.487396,153.024974
001192,"Stephens Rd at Prospect Tce, stop 7A",-27.485843,153.023751
001193,"Stephens Rd at Somerville House, stop 5",-27.483141,153.022930
001194,"Dorchester St at Somerville House, stop 5",-27.483441,153.022721
001195,"Stephens Rd at St Laurences College, stop 7",-27.487189,153.024984
001196,"Stephens Rd near Annerley Rd, stop 8",-27.489352,153.026685
001197,"Annerley Rd at Lockhart Street, stop 8",-27.489235,153.027533
001198,"Annerley Rd at Lockhart Street, stop 8",-27.488887,153.028252
001199,"Annerley Rd at Clarence Street, stop 7",-27.487957,153.028515
011998,Sumners Rd at Spine St,-27.560911,152.933943
011999,Sumners Rd at Spine St,-27.560197,152.934520
000012,Ann Street Stop 6A near Creek St,-27.465444,153.027343
000120,George Street Stop 120 near Herschel St,-27.467476,153.020072
001200,"Annerley Rd at Clarence Street, stop 7",-27.487725,153.028841
012000,Sumners Rd at Sumner Tavern,-27.561853,152.932185
012001,Sumners Rd at Sumner Tavern,-27.561658,152.931504
012002,Sumners Rd at Brumby Circuit,-27.562352,152.925597
012003,Sumners Rd at Brumby Circuit,-27.561965,152.924979
012004,Sumners Rd at Tompkins Road,-27.561484,152.919636
012005,Sumners Rd at Macfarlane Street,-27.561056,152.916651
012006,Riverhills Rd at Wirilda,-27.556379,152.920555
012007,Riverhills Rd at Wirilda,-27.556510,152.920685
012008,"Endsleigh St near Nandina St, stop 87",-27.566097,153.082526
012009,"Endsleigh St near Nandina St, stop 87",-27.566171,153.082431
001201,"Stanley St near Raymond Tce, stop 6",-27.485115,153.028392
012010,"Portulaca St near Gordonia St, stop 86",-27.567576,153.084830
012011,"Portulaca St near Gordonia St, stop 86",-27.567471,153.084462
012012,"Freesia St at Muirfield Street, stop 85",-27.569818,153.083888
012013,"Freesia St at Muirfield Street, stop 85",-27.569620,153.084304
012014,"Turnmill St at Freesia Street, stop 84",-27.570268,153.081623
012015,"Turnmill St at Freesia Street, stop 84",-27.570109,153.081981
012016,"Turnmill St at Dolphin Street, stop 83",-27.571486,153.079197
012017,"Turnmill St at Dolphin Street, stop 83",-27.571117,153.079551
012018,"Turnmill St near Wadley St, stop 82",-27.570693,153.077538
012019,"Turnmill St near Springfield St, stop 82",-27.570808,153.077440
012020,"Springfield St at Shirland Street, stop 81",-27.566279,153.074578
012021,"Springfield St at Shirland Street, stop 81",-27.566708,153.074543
012026,Darra Shops,-27.566039,152.953622
012027,Osterley Rd near Birdwood Rd,-27.496472,153.089951
012028,Osterley Rd near Birdwood Rd,-27.496611,153.090616
012029,Birdwood Rd at Birdwood Road Park,-27.498628,153.091025
012030,Birdwood Rd at Birdwood Road Park,-27.498811,153.090867
012031,"Birdwood Rd at Mons Road, stop 44/40",-27.503348,153.090009
012032,McAlroy Rd near McGinn Rd,-27.404999,152.925630
012033,McGinn Rd at McAlroy Rd,-27.404531,152.925975
012034,McGregor Way at Glencoe Cl,-27.407041,152.922582
012035,McGregor Way near McAlroy Rd,-27.406710,152.924234
012036,McAlroy Rd at McAlroy - Upper Kedron,-27.408727,152.922946
012037,McAlroy Rd at McAlroy - Upper Kedron,-27.408567,152.922931
012038,Cemetery Rd at Cemetery - Upper Kedron,-27.410358,152.924658
012039,Charolais Cr near Kirralee Cr,-27.413658,152.925508
012040,Charolais Cr at Wyellan Pl,-27.414840,152.923322
012041,Cemetery Rd at Cemetery - Upper Kedron,-27.410777,152.924712
012042,Charolais Cr near Kirralee Cr,-27.413407,152.925555
012043,Charolais Cr at Wyellan Pl,-27.415000,152.923713
012045,"Ferny Grove station, stop A",-27.400636,152.934083
012046,Settlement Rd at Kaloma Rd,-27.435828,152.943448
012047,"Tarragindi Rd at Bailey Street, stop 37",-27.524620,153.035964
012048,"Windsor Rd at Windsor - Prospect, stop 9",-27.452424,153.007226
012049,"Windsor Rd near Guildford St, stop 13",-27.445518,153.007169
012050,"Windsor Rd at Windsor - Gebbie, stop 11",-27.448220,153.005695
012051,"Windsor Rd at Windsor - Jones, stop 10",-27.450168,153.006437
012052,Frasers Rd at Irvine St,-27.417495,152.971819
012053,Glen Retreat Rd near Andover St,-27.412047,152.970632
012054,Cobalt St at Onyx St,-27.415129,152.946407
012055,Cobalt St at Onyx St,-27.415208,152.946270
012056,Settlement Rd near Tingward St,-27.431472,152.943042
012057,Settlement Rd near Tingward St,-27.431357,152.943242
012058,Settlement Rd near Kaloma Rd,-27.435265,152.943154
012059,Cobalt St at Balvenie St,-27.418534,152.940728
012060,Cobalt St at Balvenie St,-27.418857,152.941121
012061,Cobalt St at Mungarie St,-27.419704,152.941419
012062,Mungarie St at Cobalt St,-27.420139,152.941689
012063,Mungarie St near Keryn Pl,-27.420200,152.945601
012064,Mungarie St near Keryn Pl,-27.420575,152.945978
012065,"Settlement Rd at Gap Primary School, stop 36",-27.442519,152.944014
012066,"Payne Rd at Glen Rd, stop 44d",-27.450094,152.941861
012067,"Payne Rd at Glen Rd, stop 44a",-27.450041,152.942124
012068,"Payne Rd at Kays Rd, stop 44b",-27.451959,152.934752
012069,"Payne Rd at Dillon Rd, stop 44c",-27.451809,152.932703
001207,South Pine Rd near Basand St,-27.392205,152.965928
012070,"Blunder Rd at Glenala Rd, stop 71a",-27.584902,152.984206
012071,"Seventeen Mile Rocks Rd at Edenbrooke, stop 72",-27.550536,152.958560
012072,"Oldfield Rd near McPherson Rd, stop 57",-27.545361,152.952881
012073,"Oldfield Rd at Homebush Cr, stop 57b",-27.543451,152.950652
012074,"Oldfield Rd at Oldfield - Homebush, stop 57B",-27.542532,152.949938
012075,"Northbrook St at Northbrook - Oldfield, stop 58",-27.542369,152.948940
012076,"Northbrooke St near Drummond St, stop 58",-27.542525,152.948650
012077,"Avondale Rd at Avondale - Northbrook, stop 60",-27.545162,152.945473
012079,"Avondale Rd at Avondale - Glen Ross, stop 61",-27.547222,152.943687
001208,South Pine Rd near Henderson Rd,-27.391739,152.964593
012082,"Tarragindi Rd at Evans Rd, stop 42",-27.543739,153.030903
012084,"Cracknell Rd at Juster Street, stop 25A",-27.519620,153.033502
012085,"Cracknell Rd at Juster Street, stop 25A",-27.519754,153.033517
012086,"Henson Rd near Ainger St, stop 48",-27.552974,153.033884
012087,"Hyde Rd at Rome Street North, stop 27",-27.510878,153.010277
012088,"Eidsvold St near Camoola St, stop 36",-27.410734,152.946676
012089,"Monash Rd at Craigmont Street, stop 54",-27.536574,153.053323
001209,South Pine Rd near Pimelea St,-27.392579,152.967476
012090,"Lensworth St near Selhurst St, stop 59",-27.571477,153.034228
012091,South Pine Rd near Johnstone Rd,-27.321998,152.987522
012092,South Pine Rd near Johnstone Rd,-27.321990,152.987686
000121,Roma Street Stop 121 at Police HQ,-27.466533,153.018427
012103,Commercial Rd near Vernon Tce,-27.453094,153.047961
012105,Ferny Grove station stop B (Temporary),-27.401679,152.935889
012107,Ferny Grove station stop D,-27.401524,152.934803
012108,Pine Rd near Orchard Rd,-27.592545,152.955902
012109,Pine Rd near Orchard Rd,-27.592670,152.955922
012110,Cultural Centre temporary platform 2,-27.474230,153.017866
012111,Cultural Centre temporary platform 3,-27.474392,153.017546
001217,Vulture near Gladstone Rd Hail 'n' Ride,-27.481967,153.018248
000122,Roma Street Stop 122 near Garrick St,-27.466361,153.017761
000123,George Street Stop 123 near Alice St,-27.474254,153.026861
001231,Fig Tree Pocket Rd at Kenmore Rugby Club - Stop 34,-27.515454,152.954170
001232,"Oxford Tce near Lucinda St, stop 16/22",-27.493679,152.985067
001233,"Oxford Tce near Lucinda St, stop 22/16",-27.493730,152.984728
001234,"Carmody Rd near Baty St, stop 21",-27.497095,152.998875
001235,"Carmody Rd near Raven St, stop 21",-27.497168,152.999912
001236,"Carmody Rd at Munro Street, stop 22",-27.498107,153.005505
001237,"Carmody Rd at Munro Street, stop 22",-27.498046,153.006004
000124,Roma Street Stop 124 at Roma Street station,-27.466288,153.017988
001240,"Nelson Pde at Boswell Terrace, stop 88",-27.451023,153.185546
001241,"Nelson Pde at Boswell Terrace, stop 88",-27.451139,153.185426
000125,Roma Street Stop 125 at Transit Centre,-27.466380,153.018346
001257,Bay Tce at Clara Street Stop 96,-27.444884,153.174869
001259,Bay Tce at Clara Street Stop 96,-27.444840,153.174668
001263,Bay Tce at Guardian Angels School Stop 95,-27.445892,153.175672
001265,Bay Tce at Guardian Angels School Stop 95,-27.446254,153.176179
001267,"Bay Tce at Walnut Street, stop 94/93",-27.448053,153.177895
001268,"Bay Tce at Walnut Street, stop 93/94",-27.447984,153.177670
001271,"Kingsley Tce at Picton Parade, stop 91",-27.449174,153.179725
001272,"Kingsley Tce at Picton Parade, stop 91",-27.449358,153.180327
001278,"Kingsley Tce at Nelson Parade, stop 89",-27.451529,153.183808
001279,"Kingsley Tce at Nelson Parade, stop 89",-27.451309,153.183461
001280,"Kingsley Tce at Gordon Parade, stop 90",-27.449933,153.181202
001281,"Kingsley Tce at Gordon Parade, stop 90",-27.449943,153.181464
001282,"Florence St at Wynnum Central, stop 97",-27.443976,153.173109
001285,Florence St at Wynnum Central Stop 97,-27.444244,153.172945
000130,Roma Street Stop 130 at Magistrates Court,-27.468060,153.021942
013000,Daw Rd near Runcorn Plaza Shopping Centre,-27.588159,153.083909
013001,"Daw Rd near Warrigal Rd, stop 64",-27.588048,153.084014
013002,"Daw Rd at Hill Road, stop 65",-27.587352,153.078675
013003,"Daw Rd at Hill Road, stop 65",-27.587352,153.079532
013004,"Daw Rd at Diamond Place, stop 66",-27.586967,153.076091
013005,"Daw Rd at Diamond Place, stop 66",-27.586742,153.075437
013006,"Leopardwood St near Allamanda St, stop 67",-27.587673,153.074707
013007,"Leopardwood St near Allamanda St, stop 67",-27.587809,153.074560
013008,"Leopardwood St at Zinnia Court, stop 68",-27.590067,153.074272
013009,"Leopardwood St at Zinnia Court, stop 68",-27.589996,153.074162
013010,"Bonemill Rd at Bill Ardill Field, stop 69",-27.591500,153.075213
013011,"Brandon Rd at Ellen Street, stop 75",-27.598264,153.067944
013012,"Bonemill Rd at Bill Ardill Field, stop 69",-27.591278,153.075149
013013,"Bonemill Rd near Abercorn St, stop 70",-27.595165,153.074511
013014,"Bonemill Rd near Abercorn St, stop 70",-27.594644,153.074490
013015,"Gowan Rd at Darnell Street, stop 73",-27.593181,153.065230
013016,"Gowan Rd near Darnell Street, stop 73",-27.592217,153.064810
013017,"Brandon Rd at Ellen Street, stop 75",-27.597779,153.067081
013018,"Brandon Rd at Impala Street, stop 77",-27.602477,153.068035
013019,"Penson St near Cleveland Pl, stop 91",-27.617799,153.070567
013020,"Honeywood St at Honeywood Street Park, stop 80",-27.609955,153.059113
013021,"Honeywood St at Honeywood Street Park, stop 80",-27.609557,153.059750
013022,"Beenleigh Rd at Runcorn Railway, stop 72",-27.592605,153.068636
013023,"Beenleigh Rd at Runcorn Railway, stop 72",-27.591803,153.067035
013024,"Honeywood St at Cherrywood Street, stop 79a",-27.607956,153.061777
013025,"Honeywood St near Cherrywood St, stop 79a",-27.608243,153.061841
013026,"Honeywood St near Calam Rd, stop 81",-27.609180,153.055788
013029,"Brandon Rd near Winston St, stop 76",-27.600044,153.068360
013030,Luprena St at Mansfield North near Amoria St,-27.534584,153.102507
013038,"Forest Lake Bvd at Forest Lake, stop A",-27.617716,152.965111
013039,"Forest Lake Bvd at Forest Lake, stop D",-27.609235,152.953354
001304,Manly Rd at Mayfair Village Stop 53a,-27.475655,153.156046
013040,College Ave at Halifax Court,-27.615078,152.973599
013041,"Brandon Rd near Winston St, stop 76",-27.600210,153.068453
013042,"Kingsley Pde at Kingsley - Hyde, stop 23",-27.512407,153.014519
013043,"Inala station, platform A",-27.598802,152.974951
013044,"Inala station, platform B",-27.598964,152.974885
013045,"Inala station, platform C",-27.599128,152.974817
013046,Sumners Rd at Tompkins Road,-27.561172,152.919537
013047,Partridge St near Tang St,-27.606033,152.971421
013048,Pioneer Cr at Pioneer East,-27.562617,152.872281
013049,Pioneer Cr at Pioneer West,-27.560923,152.867087
001305,Manly Rd at Catamaran Stop 55,-27.475489,153.162493
013050,Rafting Ground Rd at Rafting Ground West,-27.497324,152.912505
013051,Rafting Ground Rd at Rees Way,-27.505399,152.914269
013052,"Seventeen Mile Rocks Rd at Arygle, stop 73",-27.549317,152.958294
013055,Winrock St near Rafting Ground Rd,-27.510852,152.918791
013056,"Inala station, platform E",-27.599170,152.975013
013057,Grand Plaza Shopping Centre (Sth Car Park),-27.664153,153.038120
013058,"Wilkie St at Yeerongpilly station, stop 30",-27.524938,153.014446
001306,Manly Rd at Catamaran Stop 55,-27.475317,153.162945
013060,Patricks Rd at Arana Hills K Mart,-27.397585,152.959246
013062,Old Northern Rd at Chinook,-27.382481,152.982887
013063,"Fairfield Rd at Fairfield - Venner, stop 20",-27.511969,153.022194
013064,"Hyde Rd near Utzon St, stop 31",-27.510481,153.008446
013065,"Hyde Rd near Utzon St, stop 31",-27.510583,153.008267
013066,"Brisbane Corso at Newcastle Street, stop 16",-27.504818,153.020957
013067,"Nagle St at Pickworth Street, stop 81",-27.559769,153.078151
013068,"Nagle St at Bolger Street, stop 80",-27.558298,153.076848
013069,"Tora St near Akora St, stop 77",-27.556394,153.071009
001307,Manly Rd at Moss Road Stop 54,-27.475150,153.159938
013070,"Omeo St near Trood St, stop 76",-27.557725,153.068738
013071,"Wishart Rd near Pasley St, stop 75",-27.547659,153.095278
013072,"Wishart Rd near Pasley St, stop 75",-27.547745,153.095113
013076,Holmead Rd at Nardie St,-27.570730,153.097124
013078,Nardie St at Blue Grass Cr,-27.568472,153.101141
013079,Holmead Rd at Nardie St,-27.570679,153.096040
001308,Manly Rd at Moss Road Stop 54,-27.474970,153.160457
013080,Nardie St at Goorari St,-27.568431,153.098784
013081,Nardie St at Vanderbilt St,-27.572228,153.103789
013082,Holmead Rd near Brampton St,-27.571272,153.100091
013083,"Hyde Rd near Kingsley Pde, stop 24",-27.512354,153.014829
013085,Gem Rd at Wyndarra near Rialanna St,-27.517786,152.934815
013086,Gem Rd at Annabel Street,-27.520987,152.932324
013087,Sunset Rd at Sunset West,-27.522401,152.933584
001309,"Manly Rd at Barramundi, stop 62",-27.471722,153.170977
013090,"Wynnum North Rd at Constellation Way, st",-27.428037,153.163318
013091,"Wynnum North Rd at Constellation Way, stop 13",-27.427658,153.163310
013092,"Tingal Rd at Tingal - Ure, stop 13A",-27.429217,153.164577
013093,"Tingal Rd at Tingal - Ure, stop 13A",-27.429341,153.164492
013094,Crawford Rd at Pecan St,-27.448458,153.147063
013095,Crawford Rd at Pecan St,-27.448522,153.146381
013096,Crawford Rd at Balnave St,-27.449026,153.149968
013097,Crawford Rd at Balnave St,-27.448850,153.149763
013098,School Rd near New Lindum Rd,-27.450523,153.150702
013099,School Rd near New Lindum Rd,-27.450529,153.150865
000131,Wickham Terrace at Chancellor Stop 131,-27.463285,153.020934
001310,Manly Rd at Barramundi Stop 62,-27.471241,153.171128
013102,Roxwell St at Lovat Street,-27.624123,152.950227
013103,Roxwell St at Lovat Street,-27.624237,152.951713
013104,Roxwell Street near Bagnall St,-27.623342,152.945231
013105,Roxwell Street at Roxwell Street,-27.623198,152.945072
013106,Boundary Rd at Formation Street,-27.602511,152.932446
013107,Boundary Rd near Coulson St,-27.602165,152.932675
013108,Boundary Rd at Campbell Avenue,-27.598386,152.933228
013109,Boundary Rd at Campbell Avenue,-27.598195,152.933428
001311,Manly Rd at Amberjack Stop 61/56,-27.474015,153.168455
013111,Progress Rd near Industrial Ave,-27.591434,152.931649
013112,Wacol station,-27.589154,152.924613
013113,Wilruna St at Wacol train station,-27.589347,152.923567
013114,Wilruna St at Wacol train station,-27.589408,152.923690
013115,Wilruna St at Wilga St,-27.593065,152.922103
013117,Wilruna St near Wuriga St,-27.595549,152.921210
013118,Wilruna St at Wuriga St,-27.595377,152.921420
013119,Wilruna St at Gailes station,-27.601893,152.918907
001312,Manly Rd at Amberjack Stop 56/61,-27.474608,153.167389
013120,Wilruna St at Gailes station,-27.602078,152.918965
013122,"Collins Rd at Hillenvale, stop 1",-27.382313,152.956593
013123,"Collins Rd at Hillenvale, stop 2",-27.382579,152.952714
013124,Bunya Rd at Blackwood,-27.385878,152.951216
013125,Holmead Rd at Wishart Lookout,-27.570265,153.093163
013126,Holmead Rd at Brisbane Holiday Village,-27.570162,153.093200
013129,"Browns Plains station, stop 3A",-27.661033,153.041018
001313,Manly Rd at Moreton Bay Boys Stop 63,-27.469976,153.172070
013130,"Browns Plains station, stop 3B",-27.661118,153.041536
013131,Collins Rd near Hawkes Ave,-27.382441,152.960972
001314,Manly Rd at Moreton Bay Boys Stop 63,-27.470931,153.171631
001315,Manly Rd at Silky Oaks,-27.468424,153.172938
001316,Manly Rd at Mayfair Village Stop 53a,-27.475375,153.155964
001317,Manly Rd at Silky Oaks,-27.467543,153.172931
013175,Browns Plains station,-27.661104,153.041323
013178,Canvey Rd near Kingfisher Dr,-27.423728,152.919912
013179,Canvey Rd near Brockman,-27.425294,152.916697
013180,Canvey Rd near Wagtail St,-27.421119,152.920471
013181,Canvey Rd near Incline St,-27.414840,152.921426
013182,Inala Plaza,-27.599004,152.974726
013183,Canvey Rd near Incline St,-27.415148,152.921499
013184,Canvey Rd near Wagtail St,-27.421478,152.920560
013185,Canvey Rd near Kingfisher Dr,-27.423745,152.919652
000132,Wickham Terrace Stop 132 at Gazebo,-27.464560,153.021096
001321,Grieve Rd near Pillinger Rd,-27.558591,153.134086
001324,Rembrandt Way at Gainsborough Park,-27.542168,153.125984
001326,Grieve Rd near Pillinger Rd,-27.558681,153.134400
001327,Grieve Rd,-27.564555,153.137679
001328,"Montague Rd at Raven Street, stop 12",-27.486081,153.001428
001329,"Montague Rd at Raven Street, stop 12",-27.485602,153.001893
000133,Wickham Terrace Stop 133 at Brisbane Private Hosp,-27.465352,153.022451
001330,"Montague Rd at Kurilpa Street, stop 11",-27.483880,153.002797
001331,"Montague Rd at Kurilpa Street, stop 11",-27.483962,153.002910
001332,"Latrobe Tce at Gilday Street, stop 12",-27.459346,152.992833
001333,"Latrobe Tce at Perrott Street , stop 13",-27.459696,152.990668
001334,"Latrobe Tce at Perrott Street, stop 13",-27.459658,152.990979
001336,"Latrobe Tce at Gilday Street, stop 12",-27.459042,152.993397
001337,"Latrobe Tce at Trammies Corner, stop 11",-27.458323,152.995067
001338,"Latrobe Tce at Paddington Central, stop 10",-27.459135,152.998149
001339,Grieve Rd,-27.564320,153.137699
000134,Wickham Tce Stop 134 at Watkins Place,-27.465598,153.023330
001340,Grieve Rd near Ford Rd,-27.571005,153.133280
001341,"Latrobe Tce at Trammies Corner, stop 11",-27.458437,152.994950
001342,"Baroona Rd at Rosalie Shops, stop 9",-27.466264,152.997734
001343,"Baroona Rd at Rosalie Shops, stop 9",-27.466129,152.997791
001344,"Elizabeth St at Murruba St, stop 11",-27.464613,152.993377
001345,"Elizabeth St at Murruba St, stop 11",-27.464741,152.993379
001346,"Elizabeth St at Rosalie, stop 10a",-27.465041,152.995373
001347,"Elizabeth St at Nash Street, stop 10",-27.465084,152.996515
001348,"Nash St near Elizabeth St, stop 10",-27.465367,152.996814
001349,Grieve Rd near Ford Rd,-27.571123,153.133331
000135,Upper Edward Street Stop 135 near Wickham Tce,-27.464390,153.024786
001350,"Rainworth Rd at Norm Buchan Park East, stop 12",-27.465580,152.991559
001351,"Rainworth Rd at Norm Buchan Park West, stop 14",-27.467206,152.988427
001352,"Rainworth Rd at Norm Buchan Park West, stop 14",-27.467427,152.988384
001353,"Rainworth Rd at Norm Buchan Park Central, stop 13",-27.466522,152.989621
001354,"MacGregor Tce near Tooth Ave, stop 14",-27.458992,152.988274
001356,"MacGregor St at Tooth Ave, stop 14",-27.458537,152.988136
001357,"MacGregor Tce at Bardon, stop 15",-27.458036,152.986977
001358,MacGregor Tce at Bardon,-27.458126,152.986817
001360,"Simpsons Rd at Bardon, stop 16a",-27.458414,152.985290
001361,"Simpsons Rd at Bardon, stop 16",-27.458506,152.985054
001362,"Simpsons Rd at Greer Street, stop 16",-27.459221,152.984458
001363,"Simpsons Rd at Greer Street, stop 17a",-27.459815,152.982857
001364,"Simpsons Rd at The Drive, stop 17",-27.460568,152.982578
001365,"Simpsons Rd at The Drive, stop 17",-27.461197,152.982217
001367,"Boundary Rd at Mackay Terrace, stop 18",-27.463824,152.981128
001368,"Boundary Rd at St Mary's - Rainworth, stop 17",-27.465073,152.982584
001369,"Boundary Rd at St Mary's - Rainworth, stop 17",-27.465032,152.982381
001370,"Boundary Rd at Rainworth School, stop 16",-27.466723,152.985022
001371,"Boundary Rd at Rainworth School, stop 16",-27.466621,152.984516
001372,"Boundary Rd near Brown St, stop 15",-27.467203,152.986962
001373,"Boundary Rd near Brown St, stop 15",-27.467397,152.986691
001374,"Gerler St near Selby St, stop 15",-27.465761,152.985408
001375,"Gerler St at Gerler - Hebe, stop 15B",-27.464653,152.983549
001376,"Gerler St at Gerler - Hebe, stop 15B",-27.464608,152.983661
001377,"Selby St near Gerler St, stop 15",-27.466093,152.985906
001378,"Hebe St at Mahara St, stop 15c",-27.464020,152.985176
001379,"Hebe St at Mahara St, stop 15c",-27.464110,152.985075
000138,Roma Street Stop 138 near Ann St,-27.467990,153.023155
001380,"Warburton St near Rosalie St, stop 16",-27.463041,152.986286
001383,"Main Ave near Haining St, stop 28",-27.468432,152.982109
001384,"Couldrey St near Tristania Dr, stop 29",-27.469273,152.979823
001385,"Harwood St at Main Avenue, stop 28",-27.468971,152.982477
001387,"Birdwood Tce at Birdwood Corner, stop 19",-27.470985,152.985520
001388,"Birdwood Tce at Ennever Street, stop 27",-27.470897,152.984604
001389,"Birdwood Tce at Ennever Street, stop 27",-27.470598,152.983963
000139,George Street Stop 116,-27.471367,153.023856
001390,"Harwood St near Birdwood Tce, stop 28a",-27.470151,152.982800
001392,"Birdwood Tce at Birdwood View, stop 30",-27.471235,152.978752
001393,"Birdwood Tce at Stuartholme, stop 31",-27.471347,152.976696
001394,"Birdwood Tce at Birdwood View, stop 30",-27.471394,152.978962
001397,"Birdwood Tce at Stuartholme, stop 31",-27.471138,152.976598
001398,"Stuartholme Rd at Stuartholme College, stop 32",-27.470656,152.975302
000014,Ann Street Stop 12 at City Hall,-27.468761,153.023057
000140,Upper Edward Street Stop 140 near Wickham Tce,-27.464571,153.025000
014000,New Lindum Rd at Moreton Bay,-27.451604,153.155476
014001,New Lindum Rd at Health,-27.451144,153.152702
014002,New Lindum Rd at Moreton Bay,-27.451581,153.155952
014003,Kianawah Rd at Youngs Rd,-27.453290,153.142856
014004,Kianawah Rd at Youngs Rd,-27.454175,153.142974
014005,Kianawah Rd at Evelyn Rd,-27.450942,153.142917
014006,Kianawah Rd at Evelyn Rd,-27.450798,153.143062
014007,Kianawah Rd at Glenwood Pl,-27.459673,153.142679
014008,Kianawah Rd at Glenwood Pl,-27.460214,153.142806
014009,Kianawah Rd at Vikings,-27.457713,153.142734
001401,"Rainworth Rd at Norm Buchan Park Central, stop 13",-27.466300,152.989759
014010,Kianawah Rd at Vikings,-27.457867,153.142872
014011,Stradbroke Ave at Kitchener Park,-27.447917,153.166274
014012,Stradbroke Ave at Kitchener Park,-27.447946,153.166136
014013,Stradbroke Ave at Golf Club,-27.445427,153.165364
014014,Stradbroke Ave at Golf Club,-27.445565,153.165265
014015,Stradbroke Ave at Carnation Street,-27.443839,153.164787
014016,Stradbroke Ave at Davidson Street,-27.440979,153.163614
014017,Old Northern Rd at Allamanda Crescent,-27.370813,152.980209
014018,Old Northern Rd at The Boulevard,-27.366477,152.976994
014019,Old Northern Rd at Keong Road,-27.361260,152.972168
014020,Old Northern Rd at Albany Creek High,-27.357790,152.969869
014021,Old Northern Rd at Leisure Centre,-27.353961,152.968604
